instID,church_type,instName,language,instNote,placeName,region,county_orig,county_reg,city_orig,city_reg,state_orig,state_reg,latitude,longitude,attendingInstID,attendingChurch,attendingChurchFrequency,persID,persTitle,persName,persSuffix,persRole,persNote,memberType,member,affiliated,order,year,attendingPersID,attendingChurchNote,diocese,diocese_reg
﻿lou.ky.0001,﻿cathedral,﻿Cathedral of the Assumption,English,,,,﻿Jefferson County,﻿Jefferson County,﻿Louisville,﻿Louisville,﻿KY,,38.25190594,-85.75880387,,,"﻿There are three regular Masses on Sundays and Holydays at half-past six, eight and ten A.M. in summer, and at seven, half-past eight, and half-past ten A.M. in the winter; sermons at eight and ten A.M. Masses; Vespers at half-past three A.M. in summer, and three P.M. in winter",﻿wil_mccloskey_002,﻿Rt. Rev.,﻿William McCloskey,﻿D.D.,﻿Bishop,,,,,,1870,﻿,﻿,﻿Louisville,Louisville
﻿lou.ky.0001,﻿cathedral,﻿Cathedral of the Assumption,English,,,,﻿,﻿Jefferson County,﻿Louisville,﻿Louisville,﻿KY,,38.25190594,-85.75880387,,,,﻿dav_russell_001,﻿Very Rev.,﻿David Russell,,"﻿V.G., Pastor",,,,,,1870,﻿,﻿,﻿Louisville,Louisville
﻿lou.ky.0001,﻿cathedral,﻿Cathedral of the Assumption,English,,,,﻿,﻿Jefferson County,﻿Louisville,﻿Louisville,﻿KY,,38.25190594,-85.75880387,,,,﻿m_bouchet_001,﻿Rev.,﻿M. Bouchet,,,,,,,,1870,﻿,﻿,﻿Louisville,Louisville
﻿lou.ky.0001,﻿cathedral,﻿Cathedral of the Assumption,English,,,,﻿,﻿Jefferson County,﻿Louisville,﻿Louisville,﻿KY,,38.25190594,-85.75880387,,,,﻿j_l_spalding_001,﻿Rev.,﻿J. L. Spalding,,,,,,,,1870,﻿,﻿,﻿Louisville,Louisville
﻿lou.ky.0001,﻿cathedral,﻿Cathedral of the Assumption,English,,,,﻿,﻿Jefferson County,﻿Louisville,﻿Louisville,﻿KY,,38.25190594,-85.75880387,,,,﻿v_d_hagen_001,﻿Rev.,﻿V. D. Hagen,,,,,,,,1870,﻿,﻿,﻿Louisville,Louisville
﻿lou.ky.0002,﻿church,﻿St. Boniface,﻿German,﻿residence adjoining,﻿Green street,,﻿Jefferson County,﻿Jefferson County,﻿Louisville,﻿Louisville,﻿KY,,38.25117395,-85.74396093,,,"﻿Three regular Masses on Sundays and Holydays, with sermon at the second and third; High Mass at ten A.M. and half-past ten A.M.; Vespers at two and half-past two P.M.",﻿ans_koch_001,﻿Rev.,﻿Anselm Koch,﻿O.S.F.,,,,,,,1870,﻿,﻿,﻿Louisville,Louisville
﻿lou.ky.0002,﻿church,﻿St. Boniface,﻿German,﻿residence adjoining,﻿Green street,,﻿,﻿Jefferson County,﻿Louisville,﻿Louisville,﻿KY,,38.25117395,-85.74396093,,,,﻿wil_gansepohl_001,﻿Rev.,﻿William Gansepohl,﻿O.S.F.,,,,,,,1870,﻿,﻿,﻿Louisville,Louisville
﻿lou.ky.0002,﻿church,﻿St. Boniface,﻿German,﻿residence adjoining,﻿Green street,,﻿,﻿Jefferson County,﻿Louisville,﻿Louisville,﻿KY,,38.25117395,-85.74396093,,,,﻿jos_m_roesl_001,﻿Rev.,﻿Joseph M. Roesl,﻿O.S.F.,,,,,,,1870,﻿,﻿,﻿Louisville,Louisville
﻿lou.ky.0003,﻿church,﻿Immaculate Conception,﻿German,﻿residence adjoining,﻿corner of Eighth and Grayson streets,,﻿Jefferson County,﻿Jefferson County,﻿Louisville,﻿Louisville,﻿KY,,38.25315,-85.763902,,,﻿High Mass at ten and half-past ten A.M.; Vespers at half-past two and three P.M.,﻿f_x_van-deutekom_001,﻿Rev.,﻿F. X. Van Deutekom,,,,,,,,1870,﻿,﻿,﻿Louisville,Louisville
﻿lou.ky.0003,﻿church,﻿Immaculate Conception,﻿German,﻿residence adjoining,﻿corner of Eighth and Grayson streets,,﻿,﻿Jefferson County,﻿Louisville,﻿Louisville,﻿KY,,38.25315,-85.763902,,,,,﻿Rev.,﻿— Volk,,,,,,,,1870,﻿,﻿,﻿Louisville,Louisville
﻿lou.ky.0004,﻿church,﻿St. Martin's,﻿German,﻿residence adjoining,﻿Shelby street,,﻿Jefferson County,﻿Jefferson County,﻿Louisville,﻿Louisville,﻿KY,,38.2455346,-85.73924891,,,﻿High Mass at ten and half-past ten A.M.; Vespers at three and half-past three P.M.,﻿lea_streber_001,﻿Rev.,﻿Leander Streber,﻿O.S.F.,,,,,,,1870,﻿,﻿,﻿Louisville,Louisville
﻿lou.ky.0004,﻿church,﻿St. Martin's,﻿German,﻿residence adjoining,﻿Shelby street,,﻿,﻿Jefferson County,﻿Louisville,﻿Louisville,﻿KY,,38.2455346,-85.73924891,,,,﻿mar_beyhurst_001,﻿Rev.,﻿Martin Beyhurst,,,,,,,,1870,﻿,﻿,﻿Louisville,Louisville
﻿lou.ky.0005,﻿church,﻿St. Patrick's,English,﻿residence adjoining,﻿Thirteenth street,,﻿Jefferson County,﻿Jefferson County,﻿Louisville,﻿Louisville,﻿KY,,38.25719726,-85.77203595,,,﻿High Mass at nine and half-past nine A.M.; Vespers at three P.M.,﻿m_d_lawler_001,﻿Rev.,﻿M. D. Lawler,,,,,,,,1870,﻿,﻿,﻿Louisville,Louisville
﻿lou.ky.0005,﻿church,﻿St. Patrick's,English,﻿residence adjoining,﻿Thirteenth street,,﻿,﻿Jefferson County,﻿Louisville,﻿Louisville,﻿KY,,38.25719726,-85.77203595,,,,﻿d_crane_001,﻿Rev.,﻿D. Crane,,,,,,,,1870,﻿,﻿,﻿Louisville,Louisville
﻿lou.ky.0006,﻿church,﻿St. Peter's Church,﻿German,,"﻿Sixteenth street, beyond Kentucky",,﻿Jefferson County,﻿Jefferson County,﻿Louisville,﻿Louisville,﻿KY,,38.24312473,-85.7820602,,,﻿High Mass at nine and half-past nine A.M.; Vespers at three P.M.,﻿bon_keller_001,﻿Rev.,﻿Bonaventura Keller,﻿O.S.F.C.,,,,,,,1870,﻿,﻿,﻿Louisville,Louisville
﻿lou.ky.0006,﻿church,﻿St. Peter's Church,﻿German,,"﻿Sixteenth street, beyond Kentucky",,﻿,﻿Jefferson County,﻿Louisville,﻿Louisville,﻿KY,,38.24312473,-85.7820602,,,,﻿ant_muller_001,﻿Rev.,﻿Anthony Muller,﻿O.S.F.C.,,,,,,,1870,﻿,﻿,﻿Louisville,Louisville
﻿lou.ky.0007,﻿church,﻿St. John's Church,English,,﻿Walnut and Clay streets,,﻿Jefferson County,﻿Jefferson County,﻿Louisville,﻿Louisville,﻿KY,,38.24917871,-85.74059964,,,﻿High Mass at ten and half-past ten A.M.; Vespers at three and half-past three P.M.,﻿l_bax_001,﻿Rev.,﻿L. Bax,,,,,,,,1870,﻿,﻿,﻿Louisville,Louisville
﻿lou.ky.0007,﻿church,﻿St. John's Church,English,,﻿Walnut and Clay streets,,﻿,﻿Jefferson County,﻿Louisville,﻿Louisville,﻿KY,,38.24917871,-85.74059964,,,,﻿alp_coenen_001,﻿Rev.,﻿Alphonsus Coenen,,,,,,,,1870,﻿,﻿,﻿Louisville,Louisville
﻿lou.ky.0008,﻿church,﻿St. Joseph's,﻿German,,,,﻿Jefferson County,﻿Jefferson County,﻿Louisville,﻿Louisville,﻿KY,,38.25756665,-85.72656424,,,"﻿Early Mass at half-past seven, and High Mass at ten and half-past ten; Vespers at half-past two",﻿f_walterspiel_001,﻿Rev.,﻿F. Walterspiel,,,,,,,,1870,﻿,﻿,﻿Louisville,Louisville
﻿lou.ky.0009,﻿church,﻿St. Anthony of Padua,﻿German,,﻿cor. of Market and Thirteenth streets,,﻿Jefferson County,﻿Jefferson County,﻿Louisville,﻿Louisville,﻿KY,,38.2583051,-85.78796434,,,,﻿piu_kotterer_001,﻿Rev.,﻿Pius Kotterer,﻿O.M.C.,,,,,,,1870,﻿,﻿,﻿Louisville,Louisville
﻿lou.ky.0009,﻿church,﻿St. Anthony of Padua,﻿German,,﻿cor. of Market and Thirteenth streets,,﻿,﻿Jefferson County,﻿Louisville,﻿Louisville,﻿KY,,38.2583051,-85.78796434,,,,﻿jos_lassen_001,﻿Rev.,﻿Joseph Lassen,﻿O.M.C.,,,,,,,1870,﻿,﻿,﻿Louisville,Louisville
﻿lou.ky.0009,﻿church,﻿St. Anthony of Padua,﻿German,,﻿cor. of Market and Thirteenth streets,,﻿,﻿Jefferson County,﻿Louisville,﻿Louisville,﻿KY,,38.2583051,-85.78796434,,,,﻿cle_luitz_002,﻿Rev.,﻿Clement Luitz,﻿O.M.C.,,,,,,,1870,﻿,﻿,﻿Louisville,Louisville
﻿lou.ky.0010,﻿church,﻿St. Augustine's,English,﻿for colored people,﻿Broadway and Fourteenth streets,,﻿Jefferson County,﻿Jefferson County,﻿Louisville,﻿Louisville,﻿KY,,38.24767052,-85.77369413,,,,﻿j_l_spalding_001,﻿Rev.,﻿J. L. Spalding,,﻿Pastor,,,,,,1870,﻿,﻿,﻿Louisville,Louisville
﻿lou.ky.0011,﻿chapel,﻿Chapel of the Seven Sorrows,English,,"﻿Eighth street, attached to the Convent of the Good Shepherd",,﻿Jefferson County,﻿Jefferson County,﻿Louisville,﻿Louisville,﻿KY,,38.25169642,-85.76435557,,,,,﻿Rev.,﻿— Volk,,,,,,,,1870,﻿,﻿,﻿Louisville,Louisville
﻿lou.ky.0012,﻿chapel,﻿Chapel of St. Francis Xavier,English,,﻿Fourth street,,﻿Jefferson County,﻿Jefferson County,﻿Louisville,﻿Louisville,﻿KY,,38.251986,-85.7573299,,,,﻿f_montariol_001,﻿Rev.,﻿F. Montariol,﻿A.B.,,,,,,,1870,﻿,﻿,﻿Louisville,Louisville
﻿lou.ky.0013_01,﻿chapel,﻿Chapel of the Immaculate Conception,English,,﻿St. Vincent's Orphan Asylum,,﻿Jefferson County,﻿Jefferson County,﻿Louisville,﻿Louisville,﻿KY,,38.24931689,-85.73233668,,,,﻿w_s_coomes_001,﻿Rev.,﻿W. S. Coomes,,,,,,,,1870,﻿,﻿,﻿Louisville,Louisville
﻿lou.ky.0014,﻿church,﻿Notre Dame du Port (Portland),English,,,,﻿Jefferson County,﻿Jefferson County,﻿Louisville,﻿Louisville,﻿KY,,38.27624468,-85.805653,,,"﻿Two Masses-- early Mass at half-past seven, and High Mass at ten and half-past ten",﻿hug_peythieu_001,﻿Rev.,﻿Hugo Peythieu,,,﻿who resides at the church and is Chaplain of Cedar Grove Academy,,,,,1870,﻿,﻿,﻿Louisville,Louisville
﻿lou.ky.0015,﻿church,﻿St. Michael's,English,,﻿Brook street,,﻿Jefferson County,﻿Jefferson County,﻿Louisville,﻿Louisville,﻿KY,,38.25600556,-85.7493651,,,"﻿Two Masses-- early Mass at half-past seven, and High Mass at ten and half-past ten; Vespers at three P.M.",﻿m_power_001,﻿Rev.,﻿M. Power,,,,,,,,1870,﻿,﻿,﻿Louisville,Louisville
﻿lou.ky.0016_03,﻿convent,﻿Dominican Convent of St. Louis Bertrand,English,﻿Twelve theological students and three lay brothers in this institution,"﻿Seventh street, near Churchill",,﻿Jefferson County,﻿Jefferson County,﻿Louisville,﻿Louisville,﻿KY,,38.23696639,-85.76356666,,,,﻿w_j_meagher_001,﻿Very Rev.,﻿W. J. Meagher,﻿O.P.,﻿Prior and Pastor,,,,,,1870,﻿,﻿,﻿Louisville,Louisville
﻿lou.ky.0016_03,﻿convent,﻿Dominican Convent of St. Louis Bertrand,English,﻿Twelve theological students and three lay brothers in this institution,"﻿Seventh street, near Churchill",,﻿,﻿Jefferson County,﻿Louisville,﻿Louisville,﻿KY,,38.23696639,-85.76356666,,,,﻿m_d_obrien_001,﻿Very Rev.,﻿M. D. O'Brien,﻿O.P.,﻿ex-Provincial,,,,,,1870,﻿,﻿,﻿Louisville,Louisville
﻿lou.ky.0016_03,﻿convent,﻿Dominican Convent of St. Louis Bertrand,English,﻿Twelve theological students and three lay brothers in this institution,"﻿Seventh street, near Churchill",,﻿,﻿Jefferson County,﻿Louisville,﻿Louisville,﻿KY,,38.23696639,-85.76356666,,,,﻿b_chocarne_001,﻿Rev.,﻿B. Chocarne,﻿O.P.,,,,,,,1870,﻿,﻿,﻿Louisville,Louisville
﻿lou.ky.0016_03,﻿convent,﻿Dominican Convent of St. Louis Bertrand,English,﻿Twelve theological students and three lay brothers in this institution,"﻿Seventh street, near Churchill",,﻿,﻿Jefferson County,﻿Louisville,﻿Louisville,﻿KY,,38.23696639,-85.76356666,,,,﻿j_v_daly_001,﻿Rev.,﻿J. V. Daly,﻿O.P.,,,,,,,1870,﻿,﻿,﻿Louisville,Louisville
﻿lou.ky.0016_03,﻿convent,﻿Dominican Convent of St. Louis Bertrand,English,﻿Twelve theological students and three lay brothers in this institution,"﻿Seventh street, near Churchill",,﻿,﻿Jefferson County,﻿Louisville,﻿Louisville,﻿KY,,38.23696639,-85.76356666,,,,﻿j_a_rooney_001,﻿Rev.,﻿J. A. Rooney,﻿O.P.,,,,,,,1870,﻿,﻿,﻿Louisville,Louisville
﻿lou.ky.0016_03,﻿convent,﻿Dominican Convent of St. Louis Bertrand,English,﻿Twelve theological students and three lay brothers in this institution,"﻿Seventh street, near Churchill",,﻿,﻿Jefferson County,﻿Louisville,﻿Louisville,﻿KY,,38.23696639,-85.76356666,,,,﻿p_c_coll_001,﻿Rev.,﻿P. C. Coll,﻿O.P.,,,,,,,1870,﻿,﻿,﻿Louisville,Louisville
﻿lou.ky.0016_03,﻿convent,﻿Dominican Convent of St. Louis Bertrand,English,﻿Twelve theological students and three lay brothers in this institution,"﻿Seventh street, near Churchill",,﻿,﻿Jefferson County,﻿Louisville,﻿Louisville,﻿KY,,38.23696639,-85.76356666,,,,,,,,,,,,,,1870,﻿,﻿,﻿Louisville,Louisville
﻿lou.ky.0016,﻿church,﻿St. Louis Bertrand,English,,"﻿Seventh street, near Churchill",,﻿Jefferson County,﻿Jefferson County,﻿Louisville,﻿Louisville,﻿KY,,38.23696639,-85.76356666,,,"﻿Three Masses-- at seven, half-past eight, and High Mass at ten and half-past ten; Vespers and Rosary at seven P.M.",﻿w_j_meagher_001,﻿Very Rev.,﻿W. J. Meagher,﻿O.P.,﻿Prior and Pastor,,,,,,1870,﻿,﻿,﻿Louisville,Louisville
﻿lou.ky.0017_01,﻿chapel,﻿Chapel at Mt. St. Benedict's Academy of Sisters of Loretto,English,,﻿Mt. St. Benedict's Academy of Sisters of Loretto,,﻿Jefferson County,﻿Jefferson County,﻿Louisville,﻿Louisville,﻿KY,,38.27540147,-85.8056076,,,,﻿h_peythieu_001,﻿Rev.,﻿H. Peythieu,,,,,,,,1870,﻿,﻿,﻿Louisville,Louisville
﻿lou.ky.0018_01,﻿chapel,﻿Chapel of St. Joseph's Infirmary of Sisters of Charity,English,,﻿St. Joseph's Infirmary of Sisters of Charity,,﻿Jefferson County,﻿Jefferson County,﻿Louisville,﻿Louisville,﻿KY,,38.24759501,-85.75788364,,,,,,,,,,,,﻿Attended by the Dominican Fathers,,1870,﻿,﻿,﻿Louisville,Louisville
﻿lou.ky.0019,﻿chapel,﻿Chapel of St. Francis Xavier's Industrial School of Sisters of the Good Shepherd,English,,﻿St. Francis Xavier's Industrial School of Sisters of the Good Shepherd,,﻿Jefferson County,﻿Jefferson County,﻿Louisville,﻿Louisville,﻿KY,,38.26649826,-85.7858905,,﻿Attended from St. Patrick's,,,,,,,,,,,,1870,﻿,﻿,﻿Louisville,Louisville
﻿lou.ky.0020,﻿church,﻿St. Joseph's,English,,,,﻿Nelson County,﻿Nelson County,﻿Bardstown,﻿Bardstown,﻿KY,,37.8104924,-85.4714237,,,,﻿pet_de-fraine_001,﻿Rev.,﻿Peter De Fraine,,,,,,,,1870,﻿,﻿,﻿Louisville,Louisville
﻿lou.ky.0021,﻿chapel,﻿new chapel building,English,,,,﻿,﻿Hart County,﻿Bacon Creek,﻿Bonnieville,﻿KY,,37.3786665,-85.9030233,,﻿Attended from Bowling Green,,,,,,,,,,,,1870,﻿,﻿,﻿Louisville,Louisville
﻿lou.ky.0022,﻿church,﻿St. Augustine's,English,,,,﻿Grayson County,﻿Grayson County,﻿Bear Creek,,﻿KY,,37.45036268,-86.23246168,,,,﻿j_b_vandemergel_001,﻿Rev.,﻿J. B. Vandemergel,,,,,,,,1870,﻿,﻿,﻿Louisville,Louisville
﻿lou.ky.0023,﻿church,not recorded,English,,,,﻿Trimble County,﻿Trimble County,﻿Bedford,﻿Bedford,﻿KY,,38.592563,-85.3177344,,﻿Attended from Shelbyville,,,,,,,,,,,,1870,﻿,﻿,﻿Louisville,Louisville
﻿lou.ky.0024,﻿church,not recorded,English,,,,﻿Crittenden County,﻿Crittenden County,﻿Bell's Coal Mines,,﻿KY,,37.50975787,-88.0221687,,"﻿Attended from the Sacred Heart, Union Co.",,,,,,,,,,,,1870,﻿,﻿,﻿Louisville,Louisville
﻿lou.ky.0025,﻿church,not recorded,English,,,,﻿Bullitt County,﻿Bullitt County,﻿Belmont Furnace,,﻿KY,,37.89272591,-85.69894914,,﻿Attended from New Haven,﻿occasionally,,,,,,,,,,,1870,﻿,﻿,﻿Louisville,Louisville
﻿lou.ky.0026,﻿church,﻿Immaculate Conception,English,,,,﻿Hardin County,﻿Hardin County,﻿Bethlehem Convent,,﻿KY,,37.70141476,-85.99547652,,,,﻿a_degauquier_001,﻿Rev.,﻿A. Degauquier,,﻿Chaplain and Director,,,,,,1870,﻿,﻿,﻿Louisville,Louisville
﻿lou.ky.0027,﻿church,﻿St. Joseph's,English,,,,﻿Warren County,﻿Warren County,﻿Bowling Green,﻿Bowling Green,﻿KY,,37.0018551,-86.4471498,,,,﻿jos_de-vries_001,﻿Rev.,﻿Joseph De Vries,,,,,,,,1870,﻿,﻿,﻿Louisville,Louisville
﻿lou.ky.0028,﻿church,﻿St. Andrew's,English,,,,﻿Jefferson County,﻿Jefferson County,﻿Big Run,,﻿KY,,38.1445258,-85.81439878,,,,﻿eng_bachman_001,﻿Rev.,﻿Englebert Bachman,,,,,,,,1870,﻿,﻿,﻿Louisville,Louisville
﻿lou.ky.0029,﻿church,not recorded,English,,,,﻿Mead County,﻿Meade County,﻿Brandenburgh,﻿Brandenburg,﻿KY,,38.0010277,-86.1721474,,﻿Attended from Flint Island,,,,,,,,,,,,1870,﻿,﻿,﻿Louisville,Louisville
﻿lou.ky.0030,﻿church,﻿St. Francis Assisium,English,,,,﻿Marion County,﻿Marion County,﻿Chicago,﻿St. Francis,﻿KY,,37.62635952,-85.43056317,,,,﻿p_cassidy_001,﻿Rev.,﻿P. Cassidy,,,,,,,,1870,﻿,﻿,﻿Louisville,Louisville
﻿lou.ky.0031,﻿church,﻿St. Clare's,English,,,,﻿Hardin County,﻿Hardin County,﻿Clear Creek,﻿Colesburg,﻿KY,,37.78426442,-85.7745226,,,,﻿ter_j_disney_001,﻿Rev.,﻿Ter. J. Disney,,,,,,,,1870,﻿,﻿,﻿Louisville,Louisville
﻿lou.ky.0032,﻿church,﻿St. Paul's,English,,,,﻿Grayson County,﻿Grayson County,﻿Clifty,﻿Big Clifty,﻿KY,,37.5653892,-86.217192,,,,﻿j_b_vandemergel_001,﻿Rev.,﻿J. B. Vandemergel,,,,,,,,1870,﻿,﻿,﻿Louisville,Louisville
﻿lou.ky.0033,﻿church,﻿new brick church,English,,,,﻿Breckenridge County,﻿Breckenridge County,﻿Cloverport,﻿Cloverport,﻿KY,,37.8355441,-86.6361064,﻿lou.ky.0042,﻿Attended from Hardinsburgh,﻿once a month,,,,,,,,,,,1870,﻿,﻿,﻿Louisville,Louisville
﻿lou.ky.0034,﻿church,not recorded,English,,,,﻿,﻿Boyle County,﻿Danville,﻿Danville,﻿KY,,37.6456329,-84.7721702,,,,﻿h_brady_001,﻿Rev.,﻿H. Brady,,,,,,,,1870,﻿,﻿,﻿Louisville,Louisville
﻿lou.ky.0035,﻿church,not recorded,English,,,,﻿Crittenden County,﻿Crittenden County,﻿Dycusburgh,﻿Dycusburg,﻿KY,,37.1594981,-88.1844718,,﻿Attended by Rev. E.J. Durbin from Sacred Heart (Uniontown P.O.),﻿occasionally,,,,,,,,,,,1870,﻿,﻿,﻿Louisville,Louisville
﻿lou.ky.0036,﻿church,﻿St. James',English,,,,﻿Hardin County,﻿Hardin County,﻿Elizabethtown,﻿Elizabethtown,﻿KY,,37.706119,-85.857805,,,,﻿t_disney_001,﻿Rev.,﻿T. Disney,,,,,,,,1870,﻿,﻿,﻿Louisville,Louisville
﻿lou.ky.0037,﻿church,not recorded,English,,,,﻿Henry County,﻿Henry County,﻿Eminence,﻿Eminence,﻿KY,,38.3700683,-85.1805105,,﻿Attended from Shelbyville,,,,,,,,,,,,1870,﻿,﻿,﻿Louisville,Louisville
﻿lou.ky.0038,﻿church,﻿St. Michael's,English,,,,﻿Nelson County,﻿Nelson County,﻿Fairfield,﻿Fairfield,﻿KY,,37.9318642,-85.3828839,,,,﻿jam_elliott_001,﻿Rev.,﻿James Elliott,,,,,,,,1870,﻿,﻿,﻿Louisville,Louisville
﻿lou.ky.0039,﻿church,﻿St. Teresa's,English,,,,﻿Mead County,﻿Meade County,﻿Flint Island,﻿Flint Island,﻿KY,,38.03030441,-86.43884232,,,,﻿pat_mcnicholas_001,﻿Rev.,﻿Patrick McNicholas,,,,,,,,1870,﻿,﻿,﻿Louisville,Louisville
﻿lou.ky.0040,﻿church,not recorded,English,,,,﻿Simpson County,﻿Simpson County,﻿Franklin,﻿Franklin,﻿KY,,36.7187855,-86.5785573,,,,﻿hen_mertens_001,﻿Rev.,﻿Henry Mertens,,﻿resident pastor,,,,,,1870,﻿,﻿,﻿Louisville,Louisville
﻿lou.ky.0041,﻿church,not recorded,English,﻿residence of the Trappists,,,﻿Nelson County,﻿Nelson County,﻿Gethesmane,,﻿KY,,37.64559596,-85.54547151,,,﻿Mass every Sunday,,,,,,,,,,,1870,﻿,﻿,﻿Louisville,Louisville
﻿lou.ky.0042,﻿church,﻿St. Romuald's,English,,,,﻿Breckenridge County,﻿Breckenridge County,﻿Hardinsburgh,﻿Hardinsburg,﻿KY,,37.7866832,-86.4617563,,,,﻿wil_bourke_001,﻿Rev.,﻿William Bourke,,,﻿who resides at St. Lawrence's,,,,,1870,﻿,﻿,﻿Louisville,Louisville
﻿lou.ky.0043,﻿church,﻿St. Peter's,English,﻿new church,,,﻿,﻿Mercer County,﻿Harrodsburgh,﻿Harrodsburg,﻿KY,,37.7626817,-84.8454155,,﻿Attended from Lebanon,﻿monthly,,,,,,,,,,,1870,﻿,﻿,﻿Louisville,Louisville
﻿lou.ky.0044,﻿church,﻿new church of stone,English,,,,﻿Hancock County,﻿Hancock County,﻿Hawesville,﻿Hawesville,﻿KY,,37.9000554,-86.754988,,,,﻿mar_flynn_001,﻿Rev.,﻿Martin Flynn,,,,,,,,1870,﻿,﻿,﻿Louisville,Louisville
﻿lou.ky.0045,﻿church,﻿a new brick church,English,,,,﻿Henderson County,﻿Henderson County,﻿Henderson,﻿Henderson,﻿KY,,37.8259983,-87.5683263,,,,﻿wil_j_dunn_001,﻿Rev.,﻿William J. Dunn,,﻿resident pastor,,,,,,1870,﻿,﻿,﻿Louisville,Louisville
﻿lou.ky.0046,﻿church,not recorded,English,,,,﻿Fulton County,﻿Fulton County,﻿Hickman,﻿Hickman,﻿KY,,36.5711721,-89.1861791,,﻿Attended from Fancy Farm,,,,,,,,,,,,1870,﻿,﻿,﻿Louisville,Louisville
﻿lou.ky.0047,﻿church,﻿Our Lady of Mercy,English,,,,﻿La Rue County,﻿LaRue County,﻿Hodgensville,﻿Hodgenville,﻿KY,,37.5720226,-85.7415023,,,,﻿n_ryan_001,,﻿N. Ryan,,,,,,,,1870,﻿,﻿,﻿Louisville,Louisville
﻿lou.ky.0048,﻿church,﻿Holy Cross,English,,,,﻿Marion County,﻿Marion County,﻿Holy Cross,﻿Holy Cross,﻿KY,,37.673951,-85.4469061,,,,﻿t_faunt_001,﻿Rev.,﻿T. Faunt,,,,,,,,1870,﻿,﻿,﻿Louisville,Louisville
﻿lou.ky.0049,﻿church,﻿Holy Mary,English,,,,﻿Marion County,﻿Marion County,﻿Holy Mary's,﻿Calvary,﻿KY,,37.51670909,-85.2681911,,,,﻿a_a_aud_001,﻿Rev.,﻿A. A. Aud,,,,,,,,1870,﻿,﻿,﻿Louisville,Louisville
﻿lou.ky.0049,﻿church,﻿Holy Mary,English,,,,﻿,﻿Marion County,﻿Holy Mary's,﻿Calvary,﻿KY,,37.51670909,-85.2681911,,,,﻿rob_a_abel_001,﻿Rev.,﻿Robert A. Abel,,,"﻿retired from the active exercise of the holy ministry in consequence of age and infirmities, resides near the church, and preaches occasionally",,,,,1870,﻿,﻿,﻿Louisville,Louisville
﻿lou.ky.0050,﻿church,not recorded,English,,,,﻿Christian County,﻿Christian County,﻿Hopkinsville,﻿Hopkinsville,﻿KY,,36.8656008,-87.4886186,,﻿Attended by Rev. W.J. Dunn,,,,,,,,,,,,1870,﻿,﻿,﻿Louisville,Louisville
﻿lou.ky.0051,﻿station,not recorded,English,,,,﻿Caldwell County,﻿Lyon County,﻿Kelly's Furnace,,﻿KY,,37.0512708,-88.16943695,,﻿Attended by Rev. E.J. Durbin,,,,,,,,,,,,1870,﻿,﻿,﻿Louisville,Louisville
﻿lou.ky.0052,﻿church,﻿St. Augustin's,English,,,,﻿Marion County,﻿Marion County,﻿Lebanon,﻿Lebanon,﻿KY,,37.5681216,-85.2513384,,,,﻿j_f_reed_001,﻿Rev.,﻿J. F. Reed,,,,,,,,1870,﻿,﻿,﻿Louisville,Louisville
﻿lou.ky.0053,﻿church,﻿St. Columba's,English,,,,﻿Hancock County,﻿Hancock County,﻿Lewis' Port,﻿Lewisport,﻿KY,,37.9343142,-86.9075805,,﻿Attended from Hawesville,﻿once a month,,,,,,,,,,,1870,﻿,﻿,﻿Louisville,Louisville
﻿lou.ky.0054,﻿church,﻿St. Anthony's,English,,,,﻿Breckenridge County,﻿Breckenridge County,﻿Long Lick,﻿Axtel,﻿KY,,37.63450061,-86.46202699,,,﻿once a month,﻿wil_bourke_001,﻿Rev.,﻿William Bourke,,,,,,,,1870,﻿,﻿,﻿Louisville,Louisville
﻿lou.ky.0055,﻿church,﻿Seven Sorrows,English,,,,﻿Marion County,﻿Marion County,﻿Loretto Convent,﻿Nerinx,﻿KY,,37.6657024,-85.397317,,,,﻿fra_wuyts_001,﻿Rev.,﻿Francis Wuyts,,,,,,,,1870,﻿,﻿,﻿Louisville,Louisville
﻿lou.ky.0056,﻿station,not recorded,English,,,,﻿Hopkins County,﻿Hopkins County,﻿Madisonville,﻿Madisonville,﻿KY,,37.3281005,-87.4988882,,﻿Attended by Rev. W.J. Dunn from Henderson,,,,,,,,,,,,1870,﻿,﻿,﻿Louisville,Louisville
﻿lou.ky.0057,﻿church,﻿Holy Rosary,English,,,,﻿Washington County,﻿Washington County,﻿Manton,﻿Manton,﻿KY,,37.71472,-85.38528,,,,﻿tho_faunt_001,﻿Rev.,﻿Thomas Faunt,,﻿resident pastor,,,,,,1870,﻿,﻿,﻿Louisville,Louisville
﻿lou.ky.0058,﻿station,not recorded,English,,,,﻿Trimble County,﻿Trimble County,﻿Milton,﻿Milton,﻿KY,,38.7236714,-85.3694018,,"﻿Attended from Madison, Indiana",,,,,,,,,,,,1870,﻿,﻿,﻿Louisville,Louisville
﻿lou.ky.0059,﻿church,not recorded,English,,,,﻿Union County,﻿Union County,﻿Morganfield,﻿Morganfield,﻿KY,,37.68249092,-87.9166915,,﻿Attended from Uniontown,,,,,,,,,,,,1870,﻿,﻿,﻿Louisville,Louisville
﻿lou.ky.0060,﻿church,﻿Guardian Angels,English,,,,﻿Breckenridge County,﻿Breckenridge County,﻿Mount Merino,﻿Mount Merino,﻿KY,,37.8961216,-86.2847116,,,﻿once a month,﻿p_mcnicholas_001,﻿Rev.,﻿P. McNicholas,,,,,,,,1870,﻿,﻿,﻿Louisville,Louisville
﻿lou.ky.0061,﻿church,﻿St. F. Xavier's,English,,,,﻿Bullitt County,﻿Bullitt County,﻿Mount Washington,﻿Mount Washington,﻿KY,,38.0489592,-85.5396613,,,,﻿jam_elliott_001,﻿Rev.,﻿James Elliott,,,﻿from Fairfield,,,,,1870,﻿,﻿,﻿Louisville,Louisville
﻿lou.ky.0062,﻿church,﻿St. Vincent de Paul's,English,,,,﻿Nelson County,﻿Nelson County,﻿Nazareth Convent,﻿Nazareth,﻿KY,,37.8481165,-85.4727346,,,,﻿fra_chambige_001,﻿Rev.,﻿F. Chambige,,,,,,,,1870,﻿,﻿,﻿Louisville,Louisville
﻿lou.ky.0062,﻿church,﻿St. Vincent de Paul's,English,,,,﻿,﻿Nelson County,﻿Nazareth Convent,﻿Nazareth,﻿KY,,37.8481165,-85.4727346,,,,﻿pol_fermont_001,﻿Rev.,﻿Polydore Fermont,,,,,,,,1870,﻿,﻿,﻿Louisville,Louisville
﻿lou.ky.0063,﻿church,﻿St. Catharine's,English,,,,﻿Nelson County,﻿Nelson County,﻿New Haven,﻿New Haven,﻿KY,,37.6603098,-85.5909759,,,,﻿fra_de-meulder_001,﻿Rev.,﻿Francis De Meulder,,,,,,,,1870,﻿,﻿,﻿Louisville,Louisville
﻿lou.ky.0064,﻿church,﻿St. Benedict's,English,,,,﻿Grayson County,﻿Grayson County,﻿Nolin,﻿Nolin Lake,﻿KY,,37.34009472,-86.15931526,,,﻿once a month,﻿j_b_vandemergel_001,﻿Rev.,﻿J. B. Vandemergel,,,,,,,,1870,﻿,﻿,﻿Louisville,Louisville
﻿lou.ky.0065,﻿church,﻿St. Stephen's,English,﻿new brick church completed,,,﻿Daviess County,﻿Daviess County,﻿Owensboro,﻿Owensboro,﻿KY,,37.769766,-87.1159126,,,﻿every Sunday and holyday,﻿eug_ocallaghan_001,﻿Rev.,﻿Eugene O'Callaghan,,,,,,,,1870,﻿,﻿,﻿Louisville,Louisville
﻿lou.ky.0066,﻿church,﻿St. F. de Sales,English,,,,﻿McCracken County,﻿McCracken County,﻿Paducah,﻿Paducah,﻿KY,,37.0366907,-88.6695706,,,,﻿ivo_schacht_001,﻿Rev.,﻿Ivo Schacht,,,"﻿who also attends Smithland, and other adjoining missions",,,,,1870,﻿,﻿,﻿Louisville,Louisville
﻿lou.ky.0067,﻿church,﻿St. Alphonsus',English,,,,﻿Daviess County,﻿Daviess County,﻿Panther Creek,﻿Panther,﻿KY,,37.7307984,-87.1023746,,,,﻿cha_eggermont_001,﻿Rev.,﻿Chas. Eggermont,,,,,,,,1870,﻿,﻿,﻿Louisville,Louisville
﻿lou.ky.0068,﻿church,﻿new church,English,,,,﻿,,﻿Pearce Valley,,﻿KY,,37.8393332,-84.2700179,,﻿Attended from Shelbyville,﻿once a month,,,,,,,,,,,1870,﻿,﻿,﻿Louisville,Louisville
﻿lou.ky.0069,﻿church,﻿St. F. Xavier's,English,,,,﻿Marion County,﻿Marion County,﻿Raywick,﻿Raywick,﻿KY,,37.5611975,-85.430932,,,,﻿p_cassidy_001,﻿Rev.,﻿P. Cassidy,,,,,,,,1870,﻿,﻿,﻿Louisville,Louisville
﻿lou.ky.0070,﻿church,not recorded,English,,,,﻿La Rue County,﻿Hardin County,﻿Red Mills,,﻿KY,,37.56820014,-85.8709167,,,,﻿n_ryan_001,﻿Rev.,﻿N. Ryan,,,,,,,,1870,﻿,﻿,﻿Louisville,Louisville
﻿lou.ky.0071,﻿church,not recorded,English,,,,﻿,﻿Logan County,﻿Russellville,﻿Russellville,﻿KY,,36.8453199,-86.887219,,﻿Attended from Franklin,,,,,,,,,,,,1870,﻿,﻿,﻿Louisville,Louisville
﻿lou.ky.0072,﻿church,﻿Sacred Heart of Jesus,English,,﻿Uniontown P.O.,,﻿Union County,﻿Union County,,﻿Uniontown,﻿KY,,37.7753214,-87.9305827,,,,﻿e_j_durbin_001,﻿Rev.,﻿E. J. Durbin,,,,,,,,1870,﻿,﻿,﻿Louisville,Louisville
﻿lou.ky.0072,﻿church,﻿Sacred Heart of Jesus,English,,﻿Uniontown P.O.,,﻿,﻿Union County,,﻿Uniontown,﻿KY,,37.7753214,-87.9305827,,,,﻿jam_martin_001,﻿Rev.,﻿James Martin,﻿D.D.,,,,,,,1870,﻿,﻿,﻿Louisville,Louisville
﻿lou.ky.0073,﻿church,﻿St. Ambrose,English,,,,﻿Union County,﻿Union County,﻿St. Ambrose,,﻿KY,,37.60889947,-88.03105771,,﻿Attended from Uniontown,﻿monthly,,,,,,,,,,,1870,﻿,﻿,﻿Louisville,Louisville
﻿lou.ky.0074,﻿church,﻿St. Bernard,English,,,,﻿Casey County,﻿Casey County,,,﻿KY,,37.2884267,-85.09676747,,,,﻿pat_cassidy_001,﻿Rev.,﻿Patrick Cassidy,,,,,,,,1870,﻿,﻿,﻿Louisville,Louisville
﻿lou.ky.0075,﻿church,﻿St. John Chrysostom's,English,,,,﻿,,,,﻿KY,,37.27049647,-85.16474611,,﻿Attended from Lebanon,,,,,,,,,,,,1870,﻿,﻿,﻿Louisville,Louisville
﻿lou.ky.0076,﻿chapel,﻿St. Catharine of Sienna's Chapel,English,,,,﻿Washington County,﻿Washington County,,﻿St. Catharine's,﻿KY,,37.7086731,-85.2577375,,﻿Attended from St. Rose,,,,,,,,,,,,1870,﻿,﻿,﻿Louisville,Louisville
﻿lou.ky.0077,﻿church,﻿St. Charles,English,,,,﻿Marion County,﻿Marion County,,,﻿KY,,37.59430991,-85.34388922,,,,﻿joh_b_hutchins_001,﻿Rev.,﻿John B. Hutchins,,,﻿St. Mary's Station P.O.,,,,,1870,﻿,﻿,﻿Louisville,Louisville
﻿lou.ky.0078,﻿church,﻿St. Francis of Sales,English,,,,﻿Taylor County,﻿Taylor County,,,﻿KY,,37.41015466,-85.27368543,,,,﻿pat_cassidy_001,﻿Rev.,﻿Patrick Cassidy,,,,,,,,1870,﻿,﻿,﻿Louisville,Louisville
﻿lou.ky.0079,﻿church,﻿St. Gregory,English,,,,﻿Nelson County,﻿Nelson County,﻿Deatsville,﻿Deatsville,﻿KY,,37.8970058,-85.5591229,,﻿Attended by Rev. P. Fermont from Nazareth,﻿twice a month,,,,,,,,,,,1870,﻿,﻿,﻿Louisville,Louisville
﻿lou.ky.0080,﻿church,﻿St. Jerome's,English,,﻿P.O. Fancy Farm,,﻿Graves County,﻿Graves County,,﻿Fancy Farm,﻿KY,,36.79950075,-88.79106906,,,,﻿joh_a_barrett_001,﻿Rev.,﻿John A. Barrett,,,"﻿(P.O. Fancy Farm) who also attends Hickman, Columbus, and other stations",,,,,1870,﻿,﻿,﻿Louisville,Louisville
﻿lou.ky.0081,﻿station,﻿St. Ignatius,English,,﻿P.O. Elizabethtown,,﻿Hardin County,﻿Hardin County,,,﻿KY,,37.55141512,-85.99886817,,"﻿Attended by Rev. A. Degauquier, P.O. Elizabethtown",﻿once a month,,,,,,,,,,,1870,﻿,﻿,﻿Louisville,Louisville
﻿lou.ky.0082,﻿station,﻿St. John the Baptist's,English,,,,﻿Hardin County,﻿Hardin County,,,﻿KY,,37.70862374,-85.97342959,,﻿Attended by Rev. A. Degauquier,﻿once a month,,,,,,,,,,,1870,﻿,﻿,﻿Louisville,Louisville
﻿lou.ky.0083,﻿church,﻿St. John the Baptist's,English,,,,﻿Bullitt County,﻿Bullitt County,,,﻿KY,,38.06248038,-85.73975773,,﻿Attended by Rev. P. Fermont,,,,,,,,,,,,1870,﻿,﻿,﻿Louisville,Louisville
﻿lou.ky.0084,﻿church,﻿St. John the Evangelist,English,,,,﻿McCracken County,﻿McCracken County,,,﻿KY,,36.96609764,-88.67273246,,,,﻿pet_hesele_001,﻿Rev.,﻿Peter Hesele,,﻿resident pastor,,,,,,1870,﻿,﻿,﻿Louisville,Louisville
﻿lou.ky.0085,﻿church,﻿St. Lawrence,English,﻿brick church,,,﻿Daviess County,﻿Daviess County,,,﻿KY,,37.76568412,-86.87147627,,,,﻿wil_bourke_001,﻿Rev.,﻿William Bourke,,,,,,,,1870,﻿,﻿,﻿Louisville,Louisville
﻿lou.ky.0086,﻿church,﻿St. Martin's,English,﻿frame church,,,﻿Mead County,﻿Mead County,,,﻿KY,,37.83333831,-86.07266887,,"﻿Attended by C.J. Coomes, P.O. Garnettsville",,,,,,,,,,,,1870,﻿,﻿,﻿Louisville,Louisville
﻿lou.ky.0087,﻿church,﻿St. Mary of the Woods,English,,,,﻿Daviess County,﻿Daviess County,,,﻿KY,,37.68120967,-86.87152932,,﻿Attended by Rev. M.M. Coghlan,,,,,,,,,,,,1870,﻿,﻿,﻿Louisville,Louisville
﻿lou.ky.0088,﻿church,﻿St. Patrick's,English,,,,﻿Mead County,,,,﻿KY,,37.8393332,-84.2700179,,﻿Attended by C.J. Coomes,,,,,,,,,,,,1870,﻿,﻿,﻿Louisville,Louisville
﻿lou.ky.0089,﻿church,﻿St. Rose's,English,﻿a fine new church of stone,,,﻿Washington County,﻿Washington County,,,﻿KY,,37.69340923,-85.26250559,,,﻿Mass every Sunday and holyday,,,,,,,,,﻿Attended by the Dominican Fathers,,1870,﻿,﻿,﻿Louisville,Louisville
﻿lou.ky.0090,﻿church,﻿St. Raphael's,English,"﻿The church, which had been burnt, has been rebuilt with schools for the children, both here and at St. Alphonso's, where the pastor resides",,,﻿Daviess County,﻿Daviess County,﻿Panther Creek,,﻿KY,,37.70095258,-87.24429169,,,,﻿c_egermont_001,﻿Rev.,﻿C. Egermont,,,,,,,,1870,﻿,﻿,﻿Louisville,Louisville
﻿lou.ky.0091,﻿church,﻿St. Thomas,English,,,,﻿Nelson County,﻿Nelson County,,﻿Bardstown,﻿KY,,37.76689664,-85.48361091,,,,﻿p_j_lacoste_001,﻿Rev.,﻿P. J. Lacoste,,,,,,,,1870,﻿,﻿,﻿Louisville,Louisville
﻿lou.ky.0092,﻿church,﻿St. Joachim,English,,,,﻿La Rue County,﻿La Rue County,,,﻿KY,,37.58288372,-85.64658206,,﻿Attended by Rev. N. Ryan,,,,,,,,,,,,1870,﻿,﻿,﻿Louisville,Louisville
﻿lou.ky.0093,﻿church,﻿St. Francis,English,,,,﻿Nelson County,,,,﻿KY,,37.6264514,-85.4277402,,﻿Attended by Rev. F.D. Meulder,,,,,,,,,,,,1870,﻿,﻿,﻿Louisville,Louisville
﻿lou.ky.0094,﻿church,﻿St. Vincent,English,﻿A neat brick church has been built,,,﻿Nelson County,,,,﻿KY,,37.812324,-85.4641236,,﻿Attended from New Haven,,,,,,,,,,,,1870,﻿,﻿,﻿Louisville,Louisville
﻿lou.ky.0096,﻿station,not recorded,English,,,,﻿Bullitt County,﻿Bullitt County,﻿Shepherdsville,﻿Shepherdsville,﻿KY,,37.9883991,-85.7157924,,﻿Attended by Rev. T.J. Disney,﻿occasionally,,,,,,,,,,,1870,﻿,﻿,﻿Louisville,Louisville
﻿lou.ky.0097,﻿church,﻿new church,English,,,,﻿Shelby County,﻿Shelby County,﻿Shelbyville,﻿Shelbyville,﻿KY,,38.2120144,-85.2235666,,,,﻿j_p_ryan_001,﻿Rev.,﻿J. P. Ryan,,,,,,,,1870,﻿,﻿,﻿Louisville,Louisville
﻿lou.ky.0098,﻿chapel,not recorded,English,﻿new chapel purchased,,,﻿,﻿Livingston County,﻿Smithland,﻿Smithland,﻿KY,,37.1389445,-88.4033716,,﻿Attended from Paducah,,,,,,,,,,,,1870,﻿,﻿,﻿Louisville,Louisville
﻿lou.ky.0099,﻿church,﻿St. Dominic's,English,"﻿A new church has been erected at Thompsonville, a few miles north of Springfield",,,﻿Washington County,﻿Washington County,﻿Springfield,﻿Springfield,﻿KY,,37.6852408,-85.2219638,,﻿Attended from St. Rose,,,,,,,,,,,,1870,﻿,﻿,﻿Louisville,Louisville
﻿lou.ky.0100,﻿station,not recorded,English,,,,﻿Green County,﻿Green County,﻿Summerville,﻿Summersville,﻿KY,,37.326121,-85.5443579,,﻿Attended from Lebanon,﻿occasionally,,,,,,,,,,,1870,﻿,﻿,﻿Louisville,Louisville
﻿lou.ky.0101,﻿church,﻿St. John the Evangelist,English,,,,﻿Edmundson County,﻿Edmundson County,﻿Sunfish Creek,﻿Sunfish,﻿KY,,37.2744205,-86.3695737,,,﻿once a month,﻿j_b_vandemergel_001,﻿Rev.,﻿J. B. Vandemergel,,,,,,,,1870,﻿,﻿,﻿Louisville,Louisville
﻿lou.ky.0102,﻿church,﻿All Saints',English,,,,﻿Spencer County,﻿Spencer County,﻿Taylorsville,﻿Taylorsville,﻿KY,,38.0331459,-85.344757,,,,﻿j_p_ryan_001,﻿Rev.,﻿J. P. Ryan,,,,,,,,1870,﻿,﻿,﻿Louisville,Louisville
﻿lou.ky.0103,﻿church,﻿Church of the Assumption,English,,,,﻿,﻿Washington County(?),﻿Thompsonville,﻿Thompsonville,﻿KY,,37.8393332,-84.2700179,,﻿Attended from St. Rose,﻿twice a month,,,,,,,,,,,1870,﻿,﻿,﻿Louisville,Louisville
﻿lou.ky.0104,﻿church,not recorded,English,﻿a spacious new church has been nearly completed,,,﻿Union County,﻿Union County,﻿Uniontown,﻿Uniontown,﻿KY,,37.7753214,-87.9305827,,,,﻿e_j_durbin_001,﻿Rev.,﻿E. J. Durbin,,,,,,,,1870,﻿,﻿,﻿Louisville,Louisville
﻿lou.ky.0104,﻿church,not recorded,English,﻿a spacious new church has been nearly completed,,,﻿,﻿Union County,﻿Uniontown,﻿Uniontown,﻿KY,,37.7753214,-87.9305827,,,,﻿pet_de-fraine_001,﻿Rev.,﻿James M. Martin,﻿D.D.,,,,,,,1870,﻿,﻿,﻿Louisville,Louisville
﻿lou.ky.0020_02,﻿seminary,﻿St. Joseph's Preparatory Seminary,English,,,,﻿,﻿Nelson County,﻿Bardstown,﻿Bardstown,﻿KY,,37.81139848,-85.47121804,,,,﻿p_de-fraine_001,﻿Rev.,﻿P. De Fraine,,﻿President,,﻿pupil,"﻿Number of pupils, 70",,,1870,﻿,﻿,﻿Louisville,Louisville
﻿lou.ky.0020_02,﻿seminary,﻿St. Joseph's Preparatory Seminary,English,,,,﻿,﻿Nelson County,﻿Bardstown,﻿Bardstown,﻿KY,,37.81139848,-85.47121804,,,,﻿a_viala_001,﻿Rev.,﻿A. Viala,,﻿Vice-President,,﻿pupil,"﻿Number of pupils, 70",,,1870,﻿,﻿,﻿Louisville,Louisville
﻿lou.ky.0020_02,﻿seminary,﻿St. Joseph's Preparatory Seminary,English,,,,﻿,﻿Nelson County,﻿Bardstown,﻿Bardstown,﻿KY,,37.81139848,-85.47121804,,,,﻿eug_crane_001,﻿Rev.,﻿Eugene Crane,,,,﻿pupil,"﻿Number of pupils, 70",,,1870,﻿,﻿,﻿Louisville,Louisville
﻿lou.ky.0020_02,﻿seminary,﻿St. Joseph's Preparatory Seminary,English,,,,﻿,﻿Nelson County,﻿Bardstown,﻿Bardstown,﻿KY,,37.81139848,-85.47121804,,,,﻿joh_creary_001,﻿Rev.,﻿John Creary,,,,﻿pupil,"﻿Number of pupils, 70",,,1870,﻿,﻿,﻿Louisville,Louisville
﻿lou.ky.0020_02,﻿seminary,﻿St. Joseph's Preparatory Seminary,English,,,,﻿,﻿Nelson County,﻿Bardstown,﻿Bardstown,﻿KY,,37.81139848,-85.47121804,,,,﻿pet_de-fraine_001,﻿Rev.,﻿D. O'Donovan,,,,﻿pupil,"﻿Number of pupils, 70",,,1870,﻿,﻿,﻿Louisville,Louisville
﻿lou.ky.0091_02,﻿seminary,﻿St. Thomas' Theological Seminary,English,,,,﻿,﻿Nelson County,﻿Bardstown,﻿Bardstown,﻿KY,,37.76698253,-85.48334399,,,,﻿p_de-fraine_001,﻿Rev.,﻿P. De Fraine,,﻿Professor of Dogmatic Theology,,﻿student,"﻿Number of students, 12",,,1870,﻿,﻿,﻿Louisville,Louisville
﻿lou.ky.0091_02,﻿seminary,﻿St. Thomas' Theological Seminary,English,,,,﻿,﻿Nelson County,﻿Bardstown,﻿Bardstown,﻿KY,,37.76698253,-85.48334399,,,,﻿a_viala_001,﻿Rev.,﻿A. Viala,,﻿Professor of Moral Theology,,﻿student,"﻿Number of students, 12",,,1870,﻿,﻿,﻿Louisville,Louisville
﻿lou.ky.0091_02,﻿seminary,﻿St. Thomas' Theological Seminary,English,,,,﻿,﻿Nelson County,﻿Bardstown,﻿Bardstown,﻿KY,,37.76698253,-85.48334399,,,,﻿eug_crane_001,﻿Rev.,﻿Eugene Crane,,,,﻿student,"﻿Number of students, 12",,,1870,﻿,﻿,﻿Louisville,Louisville
﻿lou.ky.0091_02,﻿seminary,﻿St. Thomas' Theological Seminary,English,,,,﻿,﻿Nelson County,﻿Bardstown,﻿Bardstown,﻿KY,,37.76698253,-85.48334399,,,,﻿joh_creary_001,﻿Rev.,﻿John Creary,,,,﻿student,"﻿Number of students, 12",,,1870,﻿,﻿,﻿Louisville,Louisville
﻿lou.ky.0091_02,﻿seminary,﻿St. Thomas' Theological Seminary,English,,,,﻿,﻿Nelson County,﻿Bardstown,﻿Bardstown,﻿KY,,37.76698253,-85.48334399,,,,﻿d_odonovan_001,﻿Rev.,﻿D. O'Donovan,,,,﻿student,"﻿Number of students, 12",,,1870,﻿,﻿,﻿Louisville,Louisville
﻿lou.ky.0177,﻿abbey,﻿Abbey of Our Lady of La Trappe,English,,,,﻿Nelson County,﻿Nelson County,﻿New Haven,﻿New Haven,﻿KY,,37.66418101,-85.52940407,,,,﻿mar_benedict_001,﻿Rt. Rev.,﻿Maria Benedict,,﻿Abbot,,,,,,1870,﻿,﻿,﻿Louisville,Louisville
﻿lou.ky.0177,﻿abbey,﻿Abbey of Our Lady of La Trappe,English,,,,﻿,﻿Nelson County,﻿New Haven,﻿New Haven,﻿KY,,37.66418101,-85.52940407,,,,﻿emanuel_001,﻿Rev.,﻿Emanuel,,﻿Prior,,,,,,1870,﻿,﻿,﻿Louisville,Louisville
﻿lou.ky.0177,﻿abbey,﻿Abbey of Our Lady of La Trappe,English,,,,﻿,﻿Nelson County,﻿New Haven,﻿New Haven,﻿KY,,37.66418101,-85.52940407,,,,﻿maria_001,,﻿Maria,,,,,,,,1870,﻿,﻿,﻿Louisville,Louisville
﻿lou.ky.0177,﻿abbey,﻿Abbey of Our Lady of La Trappe,English,,,,﻿,﻿Nelson County,﻿New Haven,﻿New Haven,﻿KY,,37.66418101,-85.52940407,,,,﻿jerome_001,,﻿Jerome,,,,,,,,1870,﻿,﻿,﻿Louisville,Louisville
﻿lou.ky.0177,﻿abbey,﻿Abbey of Our Lady of La Trappe,English,,,,﻿,﻿Nelson County,﻿New Haven,﻿New Haven,﻿KY,,37.66418101,-85.52940407,,,,﻿euthymius_001,,﻿Euthymius,,,,,,,,1870,﻿,﻿,﻿Louisville,Louisville
﻿lou.ky.0177,﻿abbey,﻿Abbey of Our Lady of La Trappe,English,,,,﻿,﻿Nelson County,﻿New Haven,﻿New Haven,﻿KY,,37.66418101,-85.52940407,,,,﻿paulinus_001,,﻿Paulinus,,,,,,,,1870,﻿,﻿,﻿Louisville,Louisville
﻿lou.ky.0177,﻿abbey,﻿Abbey of Our Lady of La Trappe,English,,,,﻿,﻿Nelson County,﻿New Haven,﻿New Haven,﻿KY,,37.66418101,-85.52940407,,,,﻿joseph_001,,﻿Joseph,,,,,,,,1870,﻿,﻿,﻿Louisville,Louisville
﻿lou.ky.0177,﻿abbey,﻿Abbey of Our Lady of La Trappe,English,,,,﻿,﻿Nelson County,﻿New Haven,﻿New Haven,﻿KY,,37.66418101,-85.52940407,,,,﻿simon_001,,﻿Simon,,,,,,,,1870,﻿,﻿,﻿Louisville,Louisville
﻿lou.ky.0177,﻿abbey,﻿Abbey of Our Lady of La Trappe,English,,,,﻿,﻿Nelson County,﻿New Haven,﻿New Haven,﻿KY,,37.66418101,-85.52940407,,,,﻿jer_nicholas_001,,﻿Jerome Nicholas,,,,,,,,1870,﻿,﻿,﻿Louisville,Louisville
﻿lou.ky.0107,﻿convent,﻿Dominican Convent of St. Rose,English,,﻿near Springfield,,﻿,﻿Washington County,,﻿Springfield,﻿KY,,37.6933657,-85.26273702,,,,﻿j_slinger_001,﻿Rev.,﻿J. Slinger,﻿O.P.,﻿Prior,,﻿student,﻿28 students,,,1870,﻿,﻿,﻿Louisville,Louisville
﻿lou.ky.0107,﻿convent,﻿Dominican Convent of St. Rose,English,,﻿near Springfield,,﻿,﻿Washington County,,﻿Springfield,﻿KY,,37.6933657,-85.26273702,,,,﻿h_mckenna_001,﻿Rev.,﻿H. McKenna,﻿O.P.,﻿Sub-Prior,,﻿lay brother,﻿14 lay brothers,,,1870,﻿,﻿,﻿Louisville,Louisville
﻿lou.ky.0107,﻿convent,﻿Dominican Convent of St. Rose,English,,﻿near Springfield,,﻿,﻿Washington County,,﻿Springfield,﻿KY,,37.6933657,-85.26273702,,,,﻿j_p_heany_001,﻿Rev.,﻿J. P. Heany,﻿O.P.,,,﻿lay brother,﻿14 lay brothers,,,1870,﻿,﻿,﻿Louisville,Louisville
﻿lou.ky.0107,﻿convent,﻿Dominican Convent of St. Rose,English,,﻿near Springfield,,﻿,﻿Washington County,,﻿Springfield,﻿KY,,37.6933657,-85.26273702,,,,﻿r_j_meagher_001,﻿Rev.,﻿R. J. Meagher,﻿O.P.,,,﻿lay brother,﻿14 lay brothers,,,1870,﻿,﻿,﻿Louisville,Louisville
﻿lou.ky.0107,﻿convent,﻿Dominican Convent of St. Rose,English,,﻿near Springfield,,﻿,﻿Washington County,,﻿Springfield,﻿KY,,37.6933657,-85.26273702,,,,﻿j_h_sheridan_001,﻿Rev.,﻿J. H. Sheridan,﻿O.P.,,,﻿lay brother,﻿14 lay brothers,,,1870,﻿,﻿,﻿Louisville,Louisville
﻿lou.ky.0107,﻿convent,﻿Dominican Convent of St. Rose,English,,﻿near Springfield,,﻿,﻿Washington County,,﻿Springfield,﻿KY,,37.6933657,-85.26273702,,,,﻿t_r_fallon_001,﻿Rev.,﻿T. R. Fallon,﻿O.P.,,,﻿lay brother,﻿14 lay brothers,,,1870,﻿,﻿,﻿Louisville,Louisville
﻿lou.ky.0107,﻿convent,﻿Dominican Convent of St. Rose,English,,﻿near Springfield,,﻿,﻿Washington County,,﻿Springfield,﻿KY,,37.6933657,-85.26273702,,,,﻿j_t_ryan_001,﻿Rev.,﻿J. T. Ryan,﻿O.P.,,,﻿lay brother,﻿14 lay brothers,,,1870,﻿,﻿,﻿Louisville,Louisville
﻿lou.ky.0107,﻿convent,﻿Dominican Convent of St. Rose,English,,﻿near Springfield,,﻿,﻿Washington County,,﻿Springfield,﻿KY,,37.6933657,-85.26273702,,,,﻿b_v_carey_001,﻿Rev.,﻿B. V. Carey,﻿O.P.,﻿Procurator,,﻿lay brother,﻿14 lay brothers,,,1870,﻿,﻿,﻿Louisville,Louisville
﻿lou.ky.0108,﻿institute,﻿St. Xavier's Institute,English,,﻿Fourth street,,,﻿Jefferson County,﻿Louisville,﻿Louisville,﻿KY,,38.24764804,-85.75787273,,,,,﻿Brother,﻿Peter,,﻿Superior,,﻿professed brother,"﻿Professed brothers, 19",,,1870,﻿,﻿,﻿Louisville,Louisville
﻿lou.ky.0108,﻿institute,﻿St. Xavier's Institute,English,,﻿Fourth street,,,﻿Jefferson County,﻿Louisville,﻿Louisville,﻿KY,,38.24764804,-85.75787273,,,,,,,,,,﻿novice,"﻿novices, 17",﻿under the charge of the Xavierian Brothers,,1870,﻿,﻿,﻿Louisville,Louisville
﻿lou.ky.0108,﻿institute,﻿St. Xavier's Institute,English,,﻿Fourth street,,,﻿Jefferson County,﻿Louisville,﻿Louisville,﻿KY,,38.24764804,-85.75787273,,,,,,,,,,﻿postulant,"﻿postulants, 13",﻿under the charge of the Xavierian Brothers,,1870,﻿,﻿,﻿Louisville,Louisville
﻿lou.ky.0005_02,﻿school,not recorded,English,,,,,,,,,,38.24764804,-85.75787273,,,,,,,,,,,,﻿Directed by the Xavierian Brothers,,1870,﻿,﻿,﻿Louisville,Louisville
﻿lou.ky.0007_02,﻿school,not recorded,English,,﻿St. Patrick's,,,﻿Jefferson County,﻿Louisville,﻿Louisville,﻿KY,,38.25719726,-85.77203595,,,,,,,,,,,,﻿Directed by the Xavierian Brothers,,1870,﻿,﻿,﻿Louisville,Louisville
﻿lou.ky.0015_02,﻿school,not recorded,English,,﻿St. John's,,,﻿Jefferson County,﻿Louisville,﻿Louisville,﻿KY,,38.24917871,-85.74059964,,,,,,,,,,,,﻿Directed by the Xavierian Brothers,,1870,﻿,﻿,﻿Louisville,Louisville
﻿lou.ky.0014_02,﻿school,not recorded,English,,﻿St. Michael's,,,﻿Jefferson County,﻿Louisville,﻿Louisville,﻿KY,,38.25600556,-85.7493651,,,,,,,,,,,,﻿Directed by the Xavierian Brothers,,1870,﻿,﻿,﻿Louisville,Louisville
﻿lou.ky.0002_02,﻿school,not recorded,﻿German,,﻿Notre Dame,,,﻿Jefferson County,﻿Louisville,﻿Louisville,﻿KY,,38.27624468,-85.805653,,,,,,,,,,,,﻿Directed by the Xavierian Brothers,,1870,﻿,﻿,﻿Louisville,Louisville
﻿lou.ky.0003_02,﻿school,not recorded,English,,﻿St. Boniface's,,,﻿Jefferson County,﻿Louisville,﻿Louisville,﻿KY,,38.25117395,-85.74396093,,,,,,,,,,,,﻿Directed by the Xavierian Brothers,,1870,﻿,﻿,﻿Louisville,Louisville
﻿lou.ky.0004_02,﻿school,not recorded,English,,﻿Immaculate Conception,,,﻿Jefferson County,﻿Louisville,﻿Louisville,﻿KY,,38.25315,-85.763902,,,,,,,,,,,,﻿Directed by the Xavierian Brothers,,1870,﻿,﻿,﻿Louisville,Louisville
﻿lou.ky.0006_02,﻿school,not recorded,English,,﻿St. Martin's,,,﻿Jefferson County,﻿Louisville,﻿Louisville,﻿KY,,38.2455346,-85.73924891,,,,,,,,,,,,﻿Directed by the Xavierian Brothers,,1870,﻿,﻿,﻿Louisville,Louisville
﻿lou.ky.0009_02,﻿school,not recorded,English,,﻿St. Peter's,,,﻿Jefferson County,﻿Louisville,﻿Louisville,﻿KY,,38.24312473,-85.7820602,,,,,,,,,,,,﻿Directed by the Xavierian Brothers,,1870,﻿,﻿,﻿Louisville,Louisville
﻿lou.ky.0118,"﻿house, academy",not recorded,English,,﻿St. Anthony's,,,﻿Jefferson County,﻿Louisville,﻿Louisville,﻿KY,,38.2583051,-85.78796434,,,,,﻿Mother,﻿Frances,,﻿Superior,,﻿member,﻿About 200 members in the Society,﻿Sisters of Charity of Nazareth,,1870,﻿,﻿,﻿Louisville,Louisville
﻿lou.ky.0118,"﻿house, academy",﻿Mother House and Academy of the Sisters of Charity of Nazareth,English,,﻿near Bardstown,,﻿,﻿Nelson County,﻿Louisville,﻿Nazareth,﻿KY,,37.85080786,-85.47308266,,,,,,,,,,﻿novice,﻿about 25 novices,﻿Sisters of Charity of Nazareth,,1870,﻿,﻿,﻿Louisville,Louisville
﻿lou.ky.0118,"﻿house, academy",﻿Mother House and Academy of the Sisters of Charity of Nazareth,English,,﻿near Bardstown,,﻿,﻿Nelson County,﻿Louisville,﻿Nazareth,﻿KY,,37.85080786,-85.47308266,,,,,,,,,,﻿boarder,"﻿boarders, 300",﻿Sisters of Charity of Nazareth,,1870,﻿,﻿,﻿Louisville,Louisville
﻿lou.ky.0118_02,﻿academy,not recorded,English,,,,﻿,,,,,,37.8506785,-85.4730957,,,,,,,,,,﻿boarder,"﻿boarders, 300",﻿Sisters of Charity of Nazareth,,1870,﻿,﻿,﻿Louisville,Louisville
﻿lou.ky.0119,﻿academy,﻿Presentation Academy,English,,,,﻿,﻿Jefferson County,﻿Louisville,﻿Louisville,﻿KY,,38.24206883,-85.75888397,,,,,﻿Sister,﻿Eulalia,,﻿Sister-Servant,,,,,,1870,﻿,﻿,﻿Louisville,Louisville
﻿lou.ky.0119,﻿academy,﻿Presentation Academy,English,,,,﻿,﻿Jefferson County,﻿Louisville,﻿Louisville,﻿KY,,38.24206883,-85.75888397,,,,,,,,,,,,﻿Conducted by the Sisters of Charity,,1870,﻿,﻿,﻿Louisville,Louisville
﻿lou.ky.0120,﻿academy,﻿St. Francis' Academy,English,,,,﻿,﻿Daviess County,﻿Owensboro,﻿Owensboro,﻿KY,,37.77390944,-87.11102145,,,,,﻿Sister,﻿Theodore,,﻿Sister-Servant,,,,,,1870,﻿,﻿,﻿Louisville,Louisville
﻿lou.ky.0120,﻿academy,﻿St. Francis' Academy,English,,,,﻿,﻿Daviess County,﻿Owensboro,﻿Owensboro,﻿KY,,37.77390944,-87.11102145,,,,,,,,,,,,﻿Conducted by the Sisters of Charity,,1870,﻿,﻿,﻿Louisville,Louisville
﻿lou.ky.0121,﻿academy,﻿St. Vincent's Academy,English,,﻿Morganfield P.O.,,﻿Union County,﻿Union County,,﻿Morganfield,﻿KY,,37.70195292,-87.83638363,,,,,﻿Sister,﻿Scholastica,,﻿Sister-Servant,,,,,,1870,﻿,﻿,﻿Louisville,Louisville
﻿lou.ky.0121,﻿academy,﻿St. Vincent's Academy,English,,﻿Morganfield P.O.,,﻿,﻿Union County,,﻿Morganfield,﻿KY,,37.70195292,-87.83638363,,,,,,,,,,,,﻿Conducted by the Sisters of Charity,,1870,﻿,﻿,﻿Louisville,Louisville
﻿lou.ky.0122,﻿academy,﻿St. Columba's Academy,English,,,,﻿,﻿Warren County,﻿Bowling Green,﻿Bowling Green,﻿KY,,36.99321347,-86.44537443,,,,,﻿Sister,﻿Constantia,,﻿Sister-Servant,,,,,,1870,﻿,﻿,﻿Louisville,Louisville
﻿lou.ky.0122,﻿academy,﻿St. Columba's Academy,English,,,,﻿,﻿Warren County,﻿Bowling Green,﻿Bowling Green,﻿KY,,36.99321347,-86.44537443,,,,,,,,,,,,﻿Conducted by the Sisters of Charity,,1870,﻿,﻿,﻿Louisville,Louisville
﻿lou.ky.0123,﻿academy,﻿St. Mary's Academy,English,,,,﻿,﻿McCraken County,﻿Paducah,﻿Paducah,﻿KY,,37.08641473,-88.59920579,,,,,,,,,,,,﻿Conducted by the Sisters of Charity,,1870,﻿,﻿,﻿Louisville,Louisville
﻿lou.ky.0124,﻿school,﻿Bethlehem School,English,,,,﻿,﻿Nelson County,﻿Bardstown,﻿Bardstown,﻿KY,,37.80809457,-85.470555,,,,,,,,,,,,﻿Conducted by the Sisters of Charity,,1870,﻿,﻿,﻿Louisville,Louisville
﻿lou.ky.0001_02,﻿school,﻿Cathedral Parochial School,English,,,,,﻿Jefferson County,﻿Louisville,﻿Louisville,﻿KY,,38.25190594,-85.75880387,,,,,,,,,,﻿pupil,﻿over 200 pupils,﻿Conducted by the Sisters of Charity,,1870,﻿,﻿,﻿Louisville,Louisville
﻿lou.ky.0007_03,﻿school,﻿St. John's Parochial School,English,,,,,﻿Jefferson County,﻿Louisville,﻿Louisville,﻿KY,,38.24917871,-85.74059964,,,,,,,,,,,,﻿Conducted by the Sisters of Charity,,1870,﻿,﻿,﻿Louisville,Louisville
﻿lou.ky.0005_03,﻿school,﻿St. Patrick's Parochial School,English,,,,,﻿Jefferson County,﻿Louisville,﻿Louisville,﻿KY,,38.25719726,-85.77203595,,,,,,,,,,,,﻿Conducted by the Sisters of Charity,,1870,﻿,﻿,﻿Louisville,Louisville
﻿lou.ky.0015_03,﻿school,﻿St. Michael's Parochial School,English,,,,,﻿Jefferson County,﻿Louisville,﻿Louisville,﻿KY,,38.25600556,-85.7493651,,,,,,,,,,,,﻿Conducted by the Sisters of Charity,,1870,﻿,﻿,﻿Louisville,Louisville
﻿lou.ky.0013_02,﻿asylum,﻿St. Vincent's Female Orphan Asylum,English,,,,,﻿Jefferson County,﻿Louisville,﻿Louisville,﻿KY,,38.24931689,-85.73233668,,,,,﻿Sister,﻿Alice,,﻿Sister-Servant,,﻿orphan girl,﻿150 orphan girls,,,1870,﻿,﻿,﻿Louisville,Louisville
﻿lou.ky.0013_02,﻿asylum,﻿St. Vincent's Female Orphan Asylum,English,,,,﻿,﻿Jefferson County,﻿Louisville,﻿Louisville,﻿KY,,38.24931689,-85.73233668,,,,,,,,,,﻿orphan girl,﻿150 orphan girls,﻿Conducted by the Sisters of Charity,,1870,﻿,﻿,﻿Louisville,Louisville
﻿lou.ky.0013_02,﻿asylum,﻿St. Vincent's Female Orphan Asylum,English,,,,﻿,﻿Jefferson County,﻿Louisville,﻿Louisville,﻿KY,,38.24931689,-85.73233668,,,,,﻿Sister,﻿Julia,,﻿Sister-Servant,,﻿orphan girl,﻿150 orphan girls,﻿Conducted by the Sisters of Charity,,1870,﻿,﻿,﻿Louisville,Louisville
﻿lou.ky.0018_02,﻿infirmary,﻿St. Joseph's Infirmary,English,,"﻿Fourth street, between Chestnut and Broadway",,﻿,﻿Jefferson County,﻿Louisville,﻿Louisville,﻿KY,,38.24759501,-85.75788364,,,,,﻿Sister,﻿Ann Matilda,,﻿Sister-Servant,,,,,,1870,﻿,﻿,﻿Louisville,Louisville
﻿lou.ky.0018_02,﻿infirmary,﻿St. Joseph's Infirmary,English,,"﻿Fourth street, between Chestnut and Broadway",,﻿,﻿Jefferson County,﻿Louisville,﻿Louisville,﻿KY,,38.24759501,-85.75788364,,,,,,,,,,,,﻿Conducted by the Sisters of Charity,,1870,﻿,﻿,﻿Louisville,Louisville
﻿lou.ky.0134,﻿mother house,not recorded,English,,﻿Loretto P.O. On the Louisville and Knoxville Railroad,,﻿Marion County,﻿Marion County,﻿Loretto,﻿Nerinx,﻿KY,,37.66214848,-85.39949065,,,,,﻿Mother,﻿Bertha,,﻿Mother Superior,,﻿member,﻿about 250 members in the Society,﻿SISTERS OF LORETTO--Daughters of Our Lady of Sorrows.,,1870,﻿,﻿,﻿Louisville,Louisville
﻿lou.ky.0134,﻿mother house,not recorded,English,,﻿Loretto P.O. On the Louisville and Knoxville Railroad,,﻿,﻿Marion County,﻿Loretto,﻿Nerinx,﻿KY,,37.66214848,-85.39949065,,,,,﻿Sister,﻿Berlindes,,﻿Mistress of Novices,,﻿novice,﻿30 novices,﻿SISTERS OF LORETTO--Daughters of Our Lady of Sorrows.,,1870,﻿,﻿,﻿Louisville,Louisville
﻿lou.ky.0134_02,﻿academy,﻿Loretto Academy,English,,﻿Loretto P.O. On the Louisville and Knoxville Railroad,,﻿Marion County,﻿Marion County,﻿Loretto,﻿Nerinx,﻿KY,,37.66214848,-85.39949065,,,,,,,,,,﻿pupil,﻿120 pupils,﻿SISTERS OF LORETTO--Daughters of Our Lady of Sorrows.,,1870,﻿,﻿,﻿Louisville,Louisville
﻿lou.ky.0135,﻿academy,﻿Calvary Academy,English,,﻿Lebanon P.O.,,﻿Marion County,﻿Marion County,﻿Lebanon,﻿Calvary,﻿KY,,37.5205141,-85.2680981,,,,,﻿Mother,﻿Rose Anne,,﻿Superior,,,,,,1870,﻿,﻿,﻿Louisville,Louisville
﻿lou.ky.0135,﻿academy,﻿Calvary Academy,English,,﻿Lebanon P.O.,,﻿,﻿Marion County,﻿Lebanon,﻿Calvary,﻿KY,,37.5205141,-85.2680981,,,,,,,,,,,,﻿Conducted by the Sisters of Loretto,,1870,﻿,﻿,﻿Louisville,Louisville
﻿lou.ky.0136,﻿academy,﻿Bethlehem Academy,English,,﻿Elizabethtown P.O.,,﻿Hardin County,﻿Hardin County,﻿Elizabethtown,﻿Elizabethtown,﻿KY,,37.70142497,-85.99549005,,,,,﻿Mother,﻿Liberata,,﻿Superior,,,,,,1870,﻿,﻿,﻿Louisville,Louisville
﻿lou.ky.0136,﻿academy,﻿Bethlehem Academy,English,,﻿Elizabethtown P.O.,,﻿,﻿Hardin County,﻿Elizabethtown,﻿Elizabethtown,﻿KY,,37.70142497,-85.99549005,,,,,,,,,,,,﻿Conducted by the Sisters of Loretto,,1870,﻿,﻿,﻿Louisville,Louisville
﻿lou.ky.0017_01,﻿academy,﻿Mt. St. Benedict's Academy,English,,"﻿Portland P.O., near Louisville",,﻿,﻿Jefferson County,﻿Cedar Grove,﻿Louisville,﻿KY,,38.26599026,-85.80807523,,,,,﻿Mother,﻿Felicitas,,﻿Superior,,,,,,1870,﻿,﻿,﻿Louisville,Louisville
﻿lou.ky.0017_01,﻿academy,﻿Mt. St. Benedict's Academy,English,,"﻿Portland P.O., near Louisville",,﻿,﻿Jefferson County,﻿Cedar Grove,﻿Louisville,﻿KY,,38.26599026,-85.80807523,,,,,,,,,,,,﻿Conducted by the Sisters of Loretto,,1870,﻿,﻿,﻿Louisville,Louisville
﻿lou.ky.0138,﻿academy,﻿St. Joseph's Academy,English,,﻿Curdsville P.O.,,﻿Daviess County,﻿Daviess County,﻿Curdsville,﻿St. Joseph,﻿KY,,37.69259081,-87.32398002,,,,,﻿Mother,﻿Matilda,,﻿Superior,,,,,,1870,﻿,﻿,﻿Louisville,Louisville
﻿lou.ky.0138,﻿academy,﻿St. Joseph's Academy,English,,﻿Curdsville P.O.,,﻿,﻿Daviess County,﻿Curdsville,﻿St. Joseph,﻿KY,,37.69259081,-87.32398002,,,,,,,,,,,,﻿Conducted by the Sisters of Loretto,,1870,﻿,﻿,﻿Louisville,Louisville
﻿lou.ky.0014_03,﻿school,﻿Notre Dame Du Port Parochial School,English,,,,﻿,,﻿Portland,﻿Louisville,﻿KY,,38.27624468,-85.805653,,,,,,,,,,,,﻿Conducted by the Sisters of Loretto,,1870,﻿,﻿,﻿Louisville,Louisville
﻿lou.ky.0140,"﻿academy, school",﻿St. Augustine's Academy and Parochial School,English,,,,﻿,﻿Marion County,﻿Lebanon,﻿Lebanon,﻿KY,,37.56777855,-85.25180729,,,,,,,,,,,,﻿Conducted by the Sisters of Loretto,,1870,﻿,﻿,﻿Louisville,Louisville
﻿lou.ky.0151,﻿house,﻿St. Catharine of Sienna,English,﻿Central House,﻿Springfield P.O.,,﻿Washington County,﻿Washington County,,﻿Springfield,﻿KY,,37.70926056,-85.25855664,,,,,﻿Mother,﻿Columba,,﻿Mother-Superior,,﻿sister,﻿About 40 Sisters at this house,﻿SISTERS OF ST. DOMINIC.,,1870,﻿,﻿,﻿Louisville,Louisville
﻿lou.ky.0151,﻿house,﻿St. Catharine of Sienna,English,﻿Central House,﻿Springfield P.O.,,﻿,﻿Washington County,,﻿Springfield,﻿KY,,37.70926056,-85.25855664,,,,,﻿Sister,﻿—,,﻿Mistress of Novices,,﻿sister,﻿About 40 Sisters at this house,﻿SISTERS OF ST. DOMINIC.,,1870,﻿,﻿,﻿Louisville,Louisville
﻿lou.ky.0151_02,﻿academy,﻿St. Catharine's Academy,English,,"﻿Springfield P.O., on the Bardstown and Springfield pike",,﻿,﻿Washington County,,﻿Springfield,﻿KY,,37.70926056,-85.25855664,,,,,,,,,,,,﻿conducted by the Sisters of St. Dominic,,1870,﻿,﻿,﻿Louisville,Louisville
﻿lou.ky.0153,﻿academy,﻿Academy of the Holy Rosary,English,,,,﻿,﻿Jefferson County,﻿Louisville,﻿Louisville,﻿KY,,38.22795,-85.76128439,,,,,,,,,,,,﻿conducted by the Sisters of St. Dominic,,1870,﻿,﻿,﻿Louisville,Louisville
﻿lou.ky.0016_02,﻿school,﻿Parochial School of St. Louis Bertrand,English,,,,﻿,,,﻿Louisville,﻿KY,,38.23696639,-85.76356666,,,,,,,,,,,,﻿conducted by the Sisters of St. Dominic,,1870,﻿,﻿,﻿Louisville,Louisville
﻿lou.ky.0157,﻿house,﻿Sisters of Our Lady of the Good Shepherd,English,﻿Central House,﻿Eighth street,,﻿,﻿Jefferson County,﻿Louisville,﻿Louisville,﻿KY,,38.25169642,-85.76435557,,,,,﻿Mother,﻿Mary Francis,,,,,,,,1870,﻿,﻿,﻿Louisville,Louisville
﻿lou.ky.0157_02,﻿convent,﻿Convent of Magdalen Sisters,English,,﻿at the Central House,,﻿,﻿Jefferson County,﻿Louisville,﻿Louisville,﻿KY,,38.25169642,-85.76435557,,,,,,,,,,,,﻿conducted by the Sisters of Our Lady of the Good Shepherd,,1870,﻿,﻿,﻿Louisville,Louisville
﻿lou.ky.0157_03,﻿asylum,﻿Good Shepherd's Penitent Asylum,English,,﻿at the Central House,,﻿,﻿Jefferson County,﻿Louisville,﻿Louisville,﻿KY,,38.25169642,-85.76435557,,,,,,,,,,﻿penitent,﻿50 penitents,﻿conducted by the Sisters of Our Lady of the Good Shepherd,,1870,﻿,﻿,﻿Louisville,Louisville
﻿lou.ky.0161_01,﻿school,﻿Good Shepherd's House of Protection,English,﻿A girls' industrial school,﻿at the Central House,,﻿,﻿Jefferson County,﻿Louisville,﻿Louisville,﻿KY,,38.25169642,-85.76435557,,,,,,,,,,,,﻿conducted by the Sisters of Our Lady of the Good Shepherd,,1870,﻿,﻿,﻿Louisville,Louisville
﻿lou.ky.0161_02,﻿school,not recorded,English,﻿a parochial school,"﻿at a new St. Francis Xavier's House, Bank and Twenty-second streets",,﻿,﻿Jefferson County,﻿Louisville,﻿Louisville,﻿KY,,38.2393324,-85.7899602,,,,,,,,,,,,﻿conducted by the Sisters of Our Lady of the Good Shepherd,,1870,﻿,﻿,﻿Louisville,Louisville
﻿lou.ky.0162_01,﻿convent,not recorded,English,,﻿corner of Chestnut and Shelby,,﻿,﻿Jefferson County,﻿Louisville,﻿Louisville,﻿KY,,38.24665541,-85.73855944,,,,,﻿Mother,﻿Martina Nicklas,,﻿Superior,,﻿sister,"﻿Sisters in number, 45",﻿Ursuline Sisters,,1870,﻿,﻿,﻿Louisville,Louisville
﻿lou.ky.0162_01,﻿convent,not recorded,English,,﻿corner of Chestnut and Shelby,,﻿,﻿Jefferson County,﻿Louisville,﻿Louisville,﻿KY,,38.24665541,-85.73855944,,,,,,,,,,﻿novice,"﻿novices, 26",﻿Ursuline Sisters,,1870,﻿,﻿,﻿Louisville,Louisville
﻿lou.ky.0162_01,﻿convent,not recorded,English,,﻿corner of Chestnut and Shelby,,﻿,﻿Jefferson County,﻿Louisville,﻿Louisville,﻿KY,,38.24665541,-85.73855944,,,,,,,,,,﻿lay sister,"﻿lay sisters, 9",﻿Ursuline Sisters,,1870,﻿,﻿,﻿Louisville,Louisville
﻿lou.ky.0162_02,﻿academy,not recorded,English,,﻿corner of Chestnut and Shelby,,﻿,﻿Jefferson County,﻿Louisville,﻿Louisville,﻿KY,,38.2469134,-85.7391415,,,,,,,,,,﻿boarding-scholars,"﻿boarding-scholars, 50",﻿Attended by the Ursuline Sisters,,1870,﻿,﻿,﻿Louisville,Louisville
﻿lou.ky.0162_02,﻿academy,not recorded,English,,﻿corner of Chestnut and Shelby,,﻿,﻿Jefferson County,﻿Louisville,﻿Louisville,﻿KY,,38.2469134,-85.7391415,,,,,,,,,,﻿day-scholars,"﻿day-scholars, 125",﻿Attended by the Ursuline Sisters,,1870,﻿,﻿,﻿Louisville,Louisville
﻿lou.ky.0004_03,﻿school,﻿Parochial School of St. Martin's Church,English,,"﻿Shelby street, between Kellar and Broadway",,﻿,﻿Jefferson County,﻿Louisville,﻿Louisville,﻿KY,,38.24531139,-85.73914574,,,,,,,,,,﻿little boy,"﻿I. Class, little boys, 165",﻿Attended by the Ursuline Sisters,,1870,﻿,﻿,﻿Louisville,Louisville
﻿lou.ky.0004_03,﻿school,﻿Parochial School of St. Martin's Church,English,,"﻿Shelby street, between Kellar and Broadway",,﻿,﻿Jefferson County,﻿Louisville,﻿Louisville,﻿KY,,38.24531139,-85.73914574,,,,,,,,,,﻿little girl,"﻿I. Class, little girls, 150",﻿Attended by the Ursuline Sisters,,1870,﻿,﻿,﻿Louisville,Louisville
﻿lou.ky.0004_03,﻿school,﻿Parochial School of St. Martin's Church,English,,"﻿Shelby street, between Kellar and Broadway",,﻿,﻿Jefferson County,﻿Louisville,﻿Louisville,﻿KY,,38.24531139,-85.73914574,,,,,,,,,,﻿larger girl,"﻿II. Class, larger girls, 167",﻿Attended by the Ursuline Sisters,,1870,﻿,﻿,﻿Louisville,Louisville
﻿lou.ky.0004_03,﻿school,﻿Parochial School of St. Martin's Church,English,,"﻿Shelby street, between Kellar and Broadway",,﻿,﻿Jefferson County,﻿Louisville,﻿Louisville,﻿KY,,38.24531139,-85.73914574,,,,,,,,,,﻿largest girl,"﻿III. Class, largest girls, 170",﻿Attended by the Ursuline Sisters,,1870,﻿,﻿,﻿Louisville,Louisville
﻿lou.ky.0003_03,﻿school,﻿Parochial School of Immaculate Conception Church,English,,﻿Eighth and Grayson,,﻿,﻿Jefferson County,﻿Louisville,﻿Louisville,﻿KY,,38.25315,-85.763902,,,,,,,,,,﻿girl,"﻿I. Class, girls, 90",,,1870,﻿,﻿,﻿Louisville,Louisville
﻿lou.ky.0003_03,﻿school,﻿Parochial School of Immaculate Conception Church,English,,﻿Eighth and Grayson,,﻿,﻿Jefferson County,﻿Louisville,﻿Louisville,﻿KY,,38.25315,-85.763902,,,,,,,,,,﻿girl,"﻿II. Class, girls, 96",,,1870,﻿,﻿,﻿Louisville,Louisville
﻿lou.ky.0008_03,﻿school,﻿Parochial School of St. Joseph's Church,English,,,,﻿,﻿Jefferson County,﻿Butchertown,﻿Louisville,﻿KY,,38.25756665,-85.72656424,,,,,,,,,,﻿little girls and little boys,"﻿I. Class, little girls and little boys, 80",,,1870,﻿,﻿,﻿Louisville,Louisville
﻿lou.ky.0008_03,﻿school,﻿Parochial School of St. Joseph's Church,English,,,,﻿,﻿Jefferson County,﻿Butchertown,﻿Louisville,﻿KY,,38.25756665,-85.72656424,,,,,,,,,,﻿little girls and little boys,"﻿I. Class, little girls and little boys, 80",,,1870,﻿,﻿,﻿Louisville,Louisville
﻿lou.ky.0008_03,﻿school,﻿Parochial School of St. Joseph's Church,English,,,,﻿,﻿Jefferson County,﻿Butchertown,﻿Louisville,﻿KY,,38.25756665,-85.72656424,,,,,,,,,,﻿boy,"﻿II. Class, boys, 73",,,1870,﻿,﻿,﻿Louisville,Louisville
﻿lou.ky.0166,﻿house,not recorded,English,,﻿Green Street,,﻿,﻿Jefferson County,﻿Louisville,﻿Louisville,﻿KY,,38.25132612,-85.74433426,,,,,,,,,,﻿professed sister,﻿6 professed Sisters,﻿SISTERS OF NOTRE DAME,,1870,﻿,﻿,﻿Louisville,Louisville
﻿lou.ky.0002_03,﻿school,﻿St. Boniface's Select Girls' School,English,,,,﻿,,,﻿Louisville,﻿KY,,38.25117395,-85.74396093,,,,,,,,,,,,﻿conducted by the Sisters of Notre Dame,,1870,﻿,﻿,﻿Louisville,Louisville
﻿lou.ky.0002_04,﻿school,﻿St. Boniface's Common School,English,,,,﻿,,,﻿Louisville,﻿KY,,38.25117395,-85.74396093,,,,,,,,,,﻿girl,"﻿Having, in all, about 420 girls under their charge",﻿conducted by the Sisters of Notre Dame,,1870,﻿,﻿,﻿Louisville,Louisville
﻿lou.ky.0169,﻿asylum,﻿St. Joseph's Orphan Asylum,﻿German,,﻿near St. Boniface's Church,,﻿,,,﻿Louisville,﻿KY,,38.25074997,-85.74425851,,,,,,,,,,﻿orphan,﻿100 orphans,﻿conducted by the Sisters of Notre Dame,,1870,﻿,﻿,﻿Louisville,Louisville
﻿lou.ky.0170,﻿hospital,﻿Marine Hospital,English,,,,﻿,﻿Jefferson County,﻿Louisville,﻿Louisville,﻿KY,,38.27105487,-85.78396288,,,,,﻿Mother,﻿Ignatius,,﻿Superior,,,,,,1870,﻿,﻿,﻿Louisville,Louisville
﻿lou.ky.0170,﻿hospital,﻿Marine Hospital,English,,,,﻿,﻿Jefferson County,﻿Louisville,﻿Louisville,﻿KY,,38.27105487,-85.78396288,,,,,,,,,,,,﻿under the charge of the Sisters of Mercy,,1870,﻿,﻿,﻿Louisville,Louisville
﻿lou.ky.0073,﻿asylum,not recorded,English,,﻿Tenth and Magazine streets,,﻿,﻿Jefferson County,﻿Louisville,﻿Louisville,﻿KY,,38.24870128,-85.76781436,,,,,,,,,,,,﻿Little Sisters of the Poor,,1870,﻿,﻿,﻿Louisville,Louisville
﻿lou.ky.0091_03,﻿asylum,﻿St. Thomas' Male Orphan Asylum,English,,,,﻿,,,﻿Bardstown,﻿KY,,37.77267398,-85.48672951,,,,,﻿Brother,﻿Florimont,,﻿Superior,,﻿child,﻿150 orphan boys,,,1870,﻿,﻿,﻿Louisville,Louisville
﻿lou.ky.0091_03,﻿asylum,﻿St. Thomas' Male Orphan Asylum,English,,,,﻿,,,﻿Bardstown,﻿KY,,37.77267398,-85.48672951,,,,,﻿Brother,﻿David,,﻿Superior,,﻿brother,﻿5,﻿conducted by the Brothers of the Sacred Heart.,,1870,﻿,﻿,﻿Louisville,Louisville
﻿lou.ky.0172,﻿asylum,﻿Infant Asylum,English,,,,﻿,﻿Jefferson County,﻿Louisville,﻿Louisville,﻿KY,,38.2526647,-85.7584557,,,,,,,,,,,,﻿under care of the Sisters of Charity,,1870,﻿,﻿,﻿Louisville,Louisville
﻿lou.ky.0174,﻿hospital,﻿St. Vincent's Home,English,﻿A Charity Hospital,,,﻿,﻿Jefferson County,﻿Louisville,﻿Louisville,﻿KY,,38.24931689,-85.73233668,,,,,,,,,,﻿patient,"﻿Number of patients, 20",﻿under care of the Sisters of Charity,,1870,﻿,﻿,﻿Louisville,Louisville
﻿lou.ky.0175,﻿infirmary,﻿St. Vincent's Infirmary,English,,,,﻿,﻿McCraken County,﻿Paducah,﻿Paducah,﻿KY,,37.0878069,-88.60006041,,,,,﻿Sister,﻿Martha,,﻿Superior,,,,﻿under care of the Sisters of Charity,,1870,﻿,﻿,﻿Louisville,Louisville
