instID,church_type,instName,language,instNote,placeName,region,county_orig,county_reg,city_orig,city_reg,state_orig,state_reg,latitude,longitude,attendingInstID,attendingChurch,attendingChurchFrequency,persID,persTitle,persName,persSuffix,persRole,persNote,memberType,member,affiliated,order,year,attendingPersID,attendingChurchNote,diocese,diocese_reg
﻿mil.wi.0001,﻿cathedral,﻿St. John's Cathedral,English,,﻿Corner of Jackson and Oneida streets,,,﻿Milwaukee County,﻿Milwaukee,﻿Milwaukee,﻿WI,,43.041805,-87.904118,,,,,﻿Rt. Rev.,﻿J. M. Henni,﻿D.D.,,,,,,,1866,﻿,﻿,﻿Milwaukee,Milwaukee
﻿mil.wi.0001,﻿cathedral,﻿St. John's Cathedral,English,,﻿Corner of Jackson and Oneida streets,,,﻿Milwaukee County,﻿Milwaukee,﻿Milwaukee,﻿WI,,43.041805,-87.904118,,,,,﻿Very Rev.,﻿M. Kundig,,,,,,,,1866,﻿,﻿,﻿Milwaukee,Milwaukee
﻿mil.wi.0001,﻿cathedral,﻿St. John's Cathedral,English,,﻿Corner of Jackson and Oneida streets,,,﻿Milwaukee County,﻿Milwaukee,﻿Milwaukee,﻿WI,,43.041805,-87.904118,,,,﻿p_j_donaghoe_001,﻿Rev.,﻿P. Donaghoe,,,,,,,,1866,﻿,﻿,﻿Milwaukee,Milwaukee
﻿mil.wi.0002,﻿church,﻿St. Mary's,English,,﻿Corner of Main and Biddle streets,,,﻿Milwaukee County,﻿Milwaukee,﻿Milwaukee,﻿WI,43.042173,43.042173,-87.907964,,,,﻿l_batz_001,﻿Rev.,﻿L. Batz,,,,,,,,1866,﻿,﻿,﻿Milwaukee,Milwaukee
﻿mil.wi.0003,﻿church,﻿St. Gall's,English,,﻿Corner of Second and Sycamore streets,,,﻿Milwaukee County,﻿Milwaukee,﻿Milwaukee,﻿WI,,43.066124,-87.913974,,,,﻿sta_p_lalumiere_001,﻿Rev.,﻿Stanislaus P. Lalumiere,﻿S.J.,﻿Superior,,,,,,1866,﻿,﻿,﻿Milwaukee,Milwaukee
﻿mil.wi.0003,﻿church,﻿St. Gall's,English,,﻿Corner of Second and Sycamore streets,,,﻿Milwaukee County,﻿Milwaukee,﻿Milwaukee,﻿WI,,43.066124,-87.913974,,,,﻿ign_maes_001,﻿Rev.,﻿Ignatius Maes,﻿S.J.,,,,,,,1866,﻿,﻿,﻿Milwaukee,Milwaukee
﻿mil.wi.0003,﻿church,﻿St. Gall's,English,,﻿Corner of Second and Sycamore streets,,,﻿Milwaukee County,﻿Milwaukee,﻿Milwaukee,﻿WI,,43.066124,-87.913974,,,,﻿j_t_kuhlmann_001,﻿Rev.,﻿J. T. Kuhlmann,﻿S.J.,,,,,,,1866,﻿,﻿,﻿Milwaukee,Milwaukee
﻿mil.wi.0004,﻿church,﻿Holy Trinity,English,,﻿Corner of Park and Greenbush streets,,,﻿Milwaukee County,﻿Milwaukee,﻿Milwaukee,﻿WI,,43.025057,-87.91582,,,,﻿m_beiter_001,﻿Rev.,﻿M. Beiter,,,,,,,,1866,﻿,﻿,﻿Milwaukee,Milwaukee
﻿mil.wi.0005,﻿church,﻿St. Joseph's,English,,﻿Corner of Eleventh and Lisbon streets,,,﻿Milwaukee County,﻿Milwaukee,﻿Milwaukee,﻿WI,,43.04987,-87.926109,,,,﻿j_holzhauer_001,﻿Rev.,﻿J. Holzhauer,,,,,,,,1866,﻿,﻿,﻿Milwaukee,Milwaukee
﻿mil.wi.0006,﻿church,﻿St. Peter's,﻿Bohemian,,﻿Martin and Jackson streets,,,﻿Milwaukee County,﻿Milwaukee,﻿Milwaukee,﻿WI,,43.044007,-87.905226,,,,﻿f_zastera_001,﻿Rev.,﻿F. Zastera,,,,,,,,1866,﻿,﻿,﻿Milwaukee,Milwaukee
﻿mil.wi.0010,﻿church,﻿St. Mary's of the Holy Angels,English,,﻿Corner of Milwaukee and Knapp streets,,,﻿Milwaukee County,﻿Milwaukee,﻿Milwaukee,﻿WI,,43.047156,-87.907544,,,,﻿f_x_krautbauer_001,﻿Rev.,﻿F. X. Krautbauer,,﻿Chaplain,,,,,,1866,﻿,﻿,﻿Milwaukee,Milwaukee
﻿mil.wi.0011,﻿church,﻿St. Patrick's,English,,,,﻿Sheboygan County,﻿Sheboygan County,﻿Abbottown,,﻿WI,,43.689523,-87.618638,,﻿Attended from Cascade,,,,,,,,,,,,1866,﻿,﻿,﻿Milwaukee,Milwaukee
﻿mil.wi.0013,﻿church,﻿St. Anthony's,English,,,,﻿Washington County,﻿Washington County,﻿Addison,﻿Addison,﻿WI,,43.442793,-88.340515,,,,﻿m_wenker_001,﻿Rev.,﻿M. Wenker,,,,,,,,1866,﻿,﻿,﻿Milwaukee,Milwaukee
﻿mil.wi.0014,﻿church,﻿SS. Peter and Paul's,English,,,,﻿Washington County,﻿Washington County,﻿Addison,﻿Addison,﻿WI,,43.446284,-88.393623,,,,﻿m_wenker_001,﻿Rev.,﻿M. Wenker,,,,,,,,1866,﻿,﻿,﻿Milwaukee,Milwaukee
﻿mil.wi.0015,﻿church,﻿St. Francis of Sales,English,,,,﻿Green County,﻿Green County,﻿Albany,﻿Albany,﻿WI,,42.735501,-89.426929,,﻿Attended by Rev. F. H. Sullivan,,﻿f_h_sullivan_001,﻿Rev.,﻿F. H. Sullivan,,,,,,,,1866,﻿,﻿,﻿Milwaukee,Milwaukee
﻿gre.wi.0005,﻿church,﻿St. Mary's,English,,,,﻿Outagamie County,﻿Outagamie County,﻿Appleton,﻿Appleton,﻿WI,,44.259257,-88.413329,,,,﻿l_dael_001,﻿Rev.,﻿L. Dael,,,,,,,,1866,﻿,﻿,﻿Milwaukee,Milwaukee
﻿mil.wi.0016,﻿church,﻿St. Martin's,English,,,,﻿Fond du Lac County,﻿Fond du Lac County,﻿Ashford,﻿Ashford,﻿WI,,43.586939,-88.370656,,,,﻿f_spath_001,﻿Rev.,﻿F. Spath,,,,,,,,1866,﻿,﻿,﻿Milwaukee,Milwaukee
﻿mil.wi.0325,﻿church,﻿St. Raphael's,English,,,,﻿Kewaunee County,,﻿Ahnepee,,﻿WI,,,,,﻿Visited from Kewaunee,,,,,,,,,,,,1866,﻿,﻿,﻿Milwaukee,Milwaukee
﻿mil.wi.0017,﻿church,﻿St. Mathias',English,,,,﻿Fond du Lac County,﻿Fond du Lac County,﻿Auburn,﻿Auburn,﻿WI,,43.585118,-88.20716,,﻿Attended from Barton,,,,,,,,,,,,1866,﻿,﻿,﻿Milwaukee,Milwaukee
﻿lac.wi.0089,﻿church,﻿St. Henry's,English,,,,﻿Pepin County,,﻿Aux Galets,,﻿WI,,,,,﻿Attended by Rev. B. Smeddink,,,﻿Rev.,﻿B. Smeddink,,,,,,,,1866,﻿,﻿,﻿Milwaukee,Milwaukee
﻿mil.wi.0018,﻿church,﻿Immaculate Conception,English,,,,﻿Washington County,﻿Washington County,﻿Barton,﻿Barton,﻿WI,,43.460556,-88.236382,,,,﻿j_reindl_001,﻿Rev.,﻿J. Reindl,,,,,,,,1866,﻿,﻿,﻿Milwaukee,Milwaukee
﻿lac.wi.0004,﻿church,﻿Christ's Church,English,,,,﻿La Point County,﻿La Point County,﻿Bayfield,﻿Bayfield,﻿WI,,46.810767,-90.81824,,,,﻿j_chebul_002,﻿Rev.,﻿J. Chebul,,,,,,,,1866,﻿,﻿,﻿Milwaukee,Milwaukee
﻿mil.wi.0019,﻿church,﻿St. Mathias',English,,,,﻿Milwaukee County,﻿Milwaukee County,﻿Beloit Road,﻿West Milwaukee,﻿WI,,42.985763,-88.029982,,,,﻿a_kieser_001,﻿Rev.,﻿A. Kieser,,,,,,,,1866,﻿,﻿,﻿Milwaukee,Milwaukee
﻿mil.wi.0020,﻿church,﻿St. Thomas',English,,,,﻿Rock County,﻿Rock County,﻿Beloit,﻿Beloit,﻿WI,,42.499446,-89.027951,,,,﻿j_h_harmon_001,﻿Rev.,﻿J. H. Harmon,,,,,,,,1866,﻿,﻿,﻿Milwaukee,Milwaukee
﻿mil.wi.0021,﻿church,﻿St. Peter's,English,,,,﻿Dodge County,﻿Dodge County,﻿Beaver Dam,﻿Beaver Dam,﻿WI,,43.451203,-88.836304,,,,﻿f_de-berge_001,﻿Rev.,﻿F. De Berge,,,,,,,,1866,﻿,﻿,﻿Milwaukee,Milwaukee
﻿mil.wi.0023,﻿church,﻿St. Patrick's,English,,,,﻿Dodge County,﻿Dodge County,﻿Beaver Dam,﻿Beaver Dam,﻿WI,,43.439298,-88.842518,,,,﻿f_de-berge_001,﻿Rev.,﻿F. De Berge,,,,,,,,1866,﻿,﻿,﻿Milwaukee,Milwaukee
﻿mil.wi.0024,﻿church,﻿Holy Cross,English,,,,﻿Ozaukee County,﻿Ozaukee County,﻿Belgium,﻿Belgium,﻿WI,,43.47028,-87.89556,,,,﻿geo_strickner_001,﻿Rev.,﻿G. Strickner,,,,,,,,1866,﻿,﻿,﻿Milwaukee,Milwaukee
﻿mil.wi.0025,﻿church,﻿St. Mary's,English,,,,﻿Ozaukee County,﻿Ozaukee County,﻿Belgium,﻿Belgium,﻿WI,,43.499721,-87.850367,,,,﻿f_fusseder_001,﻿Rev.,﻿F. Fusseder,,,,,,,,1866,﻿,﻿,﻿Milwaukee,Milwaukee
﻿mil.wi.0026,﻿church,﻿St. Patrick's,English,,,,﻿La Fayette County,﻿Lafayette County,﻿Benton,﻿Benton,﻿WI,,42.567763,-90.378652,,,,﻿h_nuyts_001,﻿Rev.,﻿H. Nuyts,﻿O.S.C.,,,,,,,1866,﻿,﻿,﻿Milwaukee,Milwaukee
﻿mil.wi.0027,﻿church,﻿St. Joseph's,English,,,,﻿Green Lake County,﻿Green Lake County,﻿Berlin,﻿Berlin,﻿WI,,43.977705,-88.941571,,﻿Attended by Rev. E. Gray,,﻿e_gray_001,﻿Rev.,﻿E. Gray,,,,,,,,1866,﻿,﻿,﻿Milwaukee,Milwaukee
﻿lac.wi.0003,﻿church,﻿St. Michael's,English,,,,﻿Sauk County,﻿Sauk County,﻿Baraboo,﻿Baraboo,﻿WI,,43.471094,-89.744291,,﻿Visited from Sauk City,,,,,,,,,,,,1866,﻿,﻿,﻿Milwaukee,Milwaukee
﻿mil.wi.0326,﻿church,﻿St. Pius',English,,,,﻿Columbia County,,﻿Briggsville,,﻿WI,,,,,﻿Visited by Rev. A. Fagan,,﻿a_fagan_001,﻿Rev.,﻿A. Fagan,,,,,,,,1866,﻿,﻿,﻿Milwaukee,Milwaukee
﻿mil.wi.0030,﻿church,﻿Immaculate Conception,English,,,,﻿Racine County,﻿Racine County,﻿Burlington,﻿Burlington,﻿WI,,42.675796,-88.281435,,,,﻿m_wisbauer_001,﻿Rev.,﻿M. Wisbauer,,,,,,,,1866,﻿,﻿,﻿Milwaukee,Milwaukee
﻿mil.wi.0031,﻿church,﻿St. Patrick's,English,,,,﻿Kenosha County,﻿Kenosha County,﻿Brighton,﻿Brighton,﻿WI,,42.627816,-88.100668,,,,﻿m_heiss_002,﻿Rev.,﻿M. Heiss,,,,,,,,1866,﻿,﻿,﻿Milwaukee,Milwaukee
﻿mil.wi.0033,﻿church,﻿St. Dominic's,English,,,,﻿Waukesha County,﻿Waukesha County,﻿Brookfield,﻿Brookfield,﻿WI,,43.060935,-88.126055,,﻿Attended by Rev. P. Kirwin,,﻿p_kirwin_001,﻿Rev.,﻿P. Kirwin,,,,,,,,1866,﻿,﻿,﻿Milwaukee,Milwaukee
﻿mil.wi.0328,﻿church,﻿Holy Angel Guardians,English,,,,﻿Outagamie County,,﻿Buchanan,,﻿WI,,,,,﻿Attended by Rev. A. J. Verberk,,﻿a_j_verberk_001,﻿Rev.,﻿A. J. Verberk,,,,,,,,1866,﻿,﻿,﻿Milwaukee,Milwaukee
﻿lac.wi.0005,﻿church,﻿St. Joseph's,English,,,,﻿La Crosse County,﻿La Crosse County,﻿Buchanan,﻿Washington,﻿WI,,43.813775,-91.251902,,"﻿Attended by Rev. Flor. Zarzíorski, O.M.C.",,﻿flo_zarzíorski_001,﻿Rev.,﻿Flor. Zarzíorski,﻿O.M.C.,,,,,,,1866,﻿,﻿,﻿Milwaukee,Milwaukee
﻿mil.wi.0034,﻿church,﻿St. Andrews's,English,,,,﻿Marquette County,﻿Marquette County,﻿Buffalo,﻿Buffalo,﻿WI,,43.693191,-89.341667,,﻿Attended by Rev. A. Fagan,,﻿a_fagan_001,﻿Rev.,﻿A. Fagan,,,,,,,,1866,﻿,﻿,﻿Milwaukee,Milwaukee
﻿mil.wi.0035,﻿church,﻿St. John's,English,,,,﻿Fond du Lac County,﻿Fond du Lac County,﻿Byron,﻿Byron,﻿WI,,43.674434,-88.450704,,,,﻿p_mcgowan_002,﻿Rev.,﻿P. McGowan,,,,,,,,1866,﻿,﻿,﻿Milwaukee,Milwaukee
﻿mil.wi.0036,﻿church,﻿St. Louis',English,,,,﻿Racine County,﻿Racine County,﻿Caledonia,﻿Caledonia,﻿WI,,42.807796,-87.924248,,,,﻿j_s_munich_001,﻿Rev.,﻿J. S. Munich,,,,,,,,1866,﻿,﻿,﻿Milwaukee,Milwaukee
﻿mil.wi.0037,﻿church,﻿Holy Family,English,,,,﻿Racine County,﻿Racine County,﻿Caledonia,﻿Caledonia,﻿WI,,42.800861,-87.836661,,,,﻿j_s_munich_001,﻿Rev.,﻿J. S. Munich,,,,,,,,1866,﻿,﻿,﻿Milwaukee,Milwaukee
﻿mil.wi.0329,﻿church,﻿St. Methodius',English,,,,﻿Kewaunee County,,﻿Carrollton,,﻿WI,,,,,﻿Attended by Rev. E. Van Steenwyck,,﻿e_van-steenwyck_001,﻿Rev.,﻿E. Van Steenwyck,,,,,,,,1866,﻿,﻿,﻿Milwaukee,Milwaukee
﻿mil.wi.0039,﻿church,﻿St. Mary's,English,,,,﻿Sheboygan County,﻿Sheboygan County,﻿Cascade,﻿Cascade,﻿WI,,43.658329,-88.007038,,,,﻿h_mcmahon_001,﻿Rev.,﻿H. McMahon,,,,,,,,1866,﻿,﻿,﻿Milwaukee,Milwaukee
﻿mil.wi.0330,﻿church,﻿St. Amand's,English,,,,﻿Kewaunee County,,﻿Casco,,﻿WI,,,,,﻿Attended by Rev. Philip Crud,,﻿phi_crud_002,﻿Rev.,﻿Philip Crud,,,,,,,,1866,﻿,﻿,﻿Milwaukee,Milwaukee
﻿mil.wi.0331,﻿church,﻿St. Edward's,English,,,,﻿Kewaunee County,,﻿Casco,,﻿WI,,,,,﻿Visited by Rev. Philip Crud,,﻿phi_crud_002,﻿Rev.,﻿Philip Crud,,,,,,,,1866,﻿,﻿,﻿Milwaukee,Milwaukee
﻿mil.wi.0040,﻿church,﻿St. Charles',English,,,,﻿Grant County,﻿Grant County,﻿Cassville,﻿Cassville,﻿WI,,42.715431,-90.974686,,﻿Attended by Rev. H. J. Albers,,,﻿Rev.,﻿H. J. Albers,,,,,,,,1866,﻿,﻿,﻿Milwaukee,Milwaukee
﻿mil.wi.0332,﻿church,﻿St. Mary's,English,,,,﻿Manitowoc County,,﻿Cato,,﻿WI,,,,,﻿Attended by Rev. E. McGinnity,,﻿e_mcginnity_001,﻿Rev.,﻿E. McGinnity,,,,,,,,1866,﻿,﻿,﻿Milwaukee,Milwaukee
﻿lac.wi.0006,﻿church,﻿St. Anthony of Padua,English,,,,﻿Richland County,﻿Richland County,﻿Cazenovia,﻿Cazenovia,﻿WI,,43.524284,-90.222851,,﻿Visited by Rev. J. Beau,,,﻿Rev.,﻿J. Beau,,,,,,,,1866,﻿,﻿,﻿Milwaukee,Milwaukee
﻿mil.wi.0041,﻿church,﻿St. Francis Borgia's,English,,,,﻿Ozaukee County,﻿Ozaukee County,﻿Cedarburg,﻿Cedarburg,﻿WI,,43.325764,-88.006679,,,,,﻿Rev.,﻿--- Mahony,,,,,,,,1866,﻿,﻿,﻿Milwaukee,Milwaukee
﻿mil.wi.0333,﻿church,﻿St. Edward's,English,,,,﻿Outagamie County,,﻿Center,,﻿WI,,,,,﻿Visited by Rev. L. Dael,,﻿l_dael_001,﻿Rev.,﻿L. Dael,,,,,,,,1866,﻿,﻿,﻿Milwaukee,Milwaukee
﻿mil.wi.0042,﻿church,﻿St. George's,English,,,,﻿Manitowoc County,﻿Manitowoc County,﻿Centerville,﻿Centerville,﻿WI,,43.950138,-87.746807,,,,﻿f_zuber_001,﻿Rev.,﻿F. Zuber,,,,,,,,1866,﻿,﻿,﻿Milwaukee,Milwaukee
﻿mil.wi.0043,﻿church,﻿St. Wendelin's,English,,,,﻿Manitowoc County,﻿Manitowoc County,﻿Centerville,﻿Centerville,﻿WI,,43.950138,-87.746807,,,,﻿f_zuber_001,﻿Rev.,﻿F. Zuber,,,,,,,,1866,﻿,﻿,﻿Milwaukee,Milwaukee
﻿lac.wi.0007,﻿church,﻿St. Mary's,English,,,,﻿Chippewa County,﻿Chippewa County,﻿Chippewa Falls,﻿Chippewa Falls,﻿WI,,44.936905,-91.392935,,,,﻿j_b_smeddink_001,﻿Rev.,﻿J. B. Smeddink,,,,,,,,1866,﻿,﻿,﻿Milwaukee,Milwaukee
﻿gre.wi.0008,﻿church,﻿St. Augustine's,English,,,,﻿Calumet County,﻿Calumet County,﻿Chilton,﻿Chilton,﻿WI,,44.028936,-88.166224,,,,﻿m_dolon_001,﻿Rev.,﻿M. Dolon,,,,,,,,1866,﻿,﻿,﻿Milwaukee,Milwaukee
﻿lac.wi.0093,﻿church,﻿St. Phillip's,English,,,,﻿Crawford County,,﻿Claytontown,,﻿WI,,,,,﻿Attended by Rev. P. Murphy,,﻿p_murphy_004,﻿Rev.,﻿P. Murphy,,,,,,,,1866,﻿,﻿,﻿Milwaukee,Milwaukee
﻿mil.wi.0045,﻿church,﻿St. Malachi's,English,,,,﻿Iowa County,﻿Iowa County,﻿Clydetown,﻿Clyde,﻿WI,,43.103282,-90.24941,,﻿Attended from Highland,,,,,,,,,,,,1866,﻿,﻿,﻿Milwaukee,Milwaukee
﻿mil.wi.0046,﻿church,﻿Holy Assumption,English,,,,﻿Dodge County,﻿Dodge County,﻿Clyman,﻿Clyman,﻿WI,,43.304494,-88.704125,,﻿Attended by Rev. H. Roche,,﻿h_roche_001,﻿Rev.,﻿H. Roche,,,,,,,,1866,﻿,﻿,﻿Milwaukee,Milwaukee
﻿mil.wi.0047,﻿church,﻿St. Isidore's,﻿German,,,,﻿Dodge County,﻿Dodge County,﻿Clyman,﻿Clyman,﻿WI,,43.308947,-88.718006,,"﻿Attended by Rev. F. Bermadinger, O.M.C.",,﻿f_bermadinger_001,﻿Rev.,﻿F. Bermadinger,﻿O.M.C.,,,,,,,1866,﻿,﻿,﻿Milwaukee,Milwaukee
﻿mil.wi.0048,﻿church,﻿St. Jerom's,English,,,,﻿Columbia County,﻿Columbia County,﻿Columbus,﻿Columbus,﻿WI,,43.323503,-89.020849,,﻿Attended by Rev. E. McGuirk,,﻿e_mcguirk_001,﻿Rev.,﻿E. McGuirk,,,,,,,,1866,﻿,﻿,﻿Milwaukee,Milwaukee
﻿mil.wi.0049,﻿church,﻿St. Mary's of Help,English,,,,﻿Jefferson County,﻿Jefferson County,﻿Concord,﻿Concord,﻿WI,,43.06945,-88.598712,,﻿Attended from Ottowa,,,,,,,,,,,,1866,﻿,﻿,﻿Milwaukee,Milwaukee
﻿mil.wi.0334,﻿church,﻿Holy Family,English,,,,﻿Manitowoc County,,﻿Cooperstown,,﻿WI,,,,,,,﻿f_lang_001,﻿Rev.,﻿F. Lang,,,,,,,,1866,﻿,﻿,﻿Milwaukee,Milwaukee
﻿mil.wi.0335,﻿church,﻿St. Wenceslaus',English,,,,﻿Manitowoc County,,﻿Cooperstown,,﻿WI,,,,,﻿Attended by Rev. F. Lang,,﻿f_lang_001,﻿Rev.,﻿F. Lang,,,,,,,,1866,﻿,﻿,﻿Milwaukee,Milwaukee
﻿mil.wi.0336,﻿church,﻿St. John Nepom,English,,,,﻿Kewaunee County,,﻿Coryville,,﻿WI,,,,,﻿Attended by Rev. A. Lang,,﻿a_lang_001,﻿Rev.,﻿A. Lang,,,,,,,,1866,﻿,﻿,﻿Milwaukee,Milwaukee
﻿mil.wi.0050,﻿church,﻿St. Francis Xavier's,English,,,,﻿Dane County,﻿Dane County,﻿Cross Plains,﻿Cross Plains,﻿WI,,43.119824,-89.634631,,,,﻿p_j_voissem_001,﻿Rev.,﻿P. J. Voissem,,,,,,,,1866,﻿,﻿,﻿Milwaukee,Milwaukee
﻿mil.wi.0051,﻿church,﻿St. Mary's,English,,,,﻿Dane County,﻿Dane County,﻿Cross Plains,﻿Cross Plains,﻿WI,,43.495559,-89.310633,,,,﻿p_j_voissem_001,﻿Rev.,﻿P. J. Voissem,,,,,,,,1866,﻿,﻿,﻿Milwaukee,Milwaukee
﻿mil.wi.0053,﻿church,﻿St. Leo's,English,,,,﻿Lafayette County,﻿La Fayette County,﻿Darlington,﻿Darlington,﻿WI,,42.683031,-90.117512,,,,﻿a_david_001,﻿Rev.,﻿A. David,,,,,,,,1866,﻿,﻿,﻿Milwaukee,Milwaukee
﻿mil.wi.0055,﻿church,﻿St. Anne's,English,,,,﻿Dane County,﻿Dane County,﻿Deerfield,﻿Deerfield,﻿WI,,43.08213,-89.083051,,﻿Attended by Rev. Will. O'Connell,,﻿wil_oconnell_001,﻿Rev.,﻿Will. O'Connell,,,,,,,,1866,﻿,﻿,﻿Milwaukee,Milwaukee
﻿mil.wi.0056,﻿church,﻿St. Andrew's,English,,,,﻿Walworth County,﻿Walworth County,﻿Delavan,﻿Delavan,﻿WI,,42.637216,-88.639119,,,,﻿l_kenny_001,﻿Rev.,﻿L. Kenny,,,,,,,,1866,﻿,﻿,﻿Milwaukee,Milwaukee
﻿lac.wi.0094,﻿church,﻿All Saints',English,,,,﻿Sauk County,,﻿Delona,,﻿WI,,,,,﻿Visited by Rev. P. Montague,,﻿p_montague_002,﻿Rev.,﻿P. Montague,,,,,,,,1866,﻿,﻿,﻿Milwaukee,Milwaukee
﻿mil.wi.0057,﻿church,﻿St. Kiernan's,English,,,,﻿Columbia County,﻿Columbia County,﻿Dekora,﻿Dekkora,﻿WI,,43.457484,-89.46762,,﻿Attended by Rev. P. Pettit,,﻿p_pettit_001,﻿Rev.,﻿P. Pettit,,,,,,,,1866,﻿,﻿,﻿Milwaukee,Milwaukee
﻿mil.wi.0337,﻿church,﻿St. Francis Xavier's,English,,,,﻿Brown County,,﻿Depére,,﻿WI,,,,,,,﻿w_a_verboort_002,﻿Rev.,﻿W. A. Verboort,,,,,,,,1866,﻿,﻿,﻿Milwaukee,Milwaukee
﻿mil.wi.0058,﻿church,﻿St. Peter's,English,,,,﻿Iowa County,﻿Iowa County,﻿Dodgeville,﻿Dodgeville,﻿WI,,42.960274,-90.130124,,﻿Attended from Highland,,,,,,,,,,,,1866,﻿,﻿,﻿Milwaukee,Milwaukee
﻿mil.wi.0338,﻿church,﻿St. John Baptist's,English,,,,﻿Outagamie County,,﻿Duck Creek,,﻿WI,,,,,,,﻿m_henns_001,﻿Rev.,﻿M. Henns,﻿O.M.C.,,,,,,,1866,﻿,﻿,﻿Milwaukee,Milwaukee
﻿mil.wi.0060,﻿church,﻿St. Thaddeus',English,,,,﻿Walworth County,﻿Walworth County,﻿East-Troy,﻿East Troy,﻿WI,,42.785292,-88.405096,,,,,﻿Rev.,﻿G. L. Willard,,,,,,,,1866,﻿,﻿,﻿Milwaukee,Milwaukee
﻿mil.wi.0061,﻿church,﻿St. Gregory Naz.,English,,,,﻿Manitowoc County,﻿Manitowoc County,﻿Eaton,﻿Eaton,﻿WI,,44.021373,-87.992268,,,,﻿a_oschwald_001,﻿Rev.,﻿A. Oschwald,,,,,,,,1866,﻿,﻿,﻿Milwaukee,Milwaukee
﻿mil.wi.0061,﻿church,﻿St. Gregory Naz.,English,,,,﻿Manitowoc County,﻿Manitowoc County,﻿Eaton,﻿Eaton,﻿WI,,44.021373,-87.992268,,,,,﻿Rev.,﻿--- Fessler,,﻿Assistant,,,,,,1866,﻿,﻿,﻿Milwaukee,Milwaukee
﻿mil.wi.0062,﻿church,﻿St. Theresa's,English,,,,﻿Waukesha County,﻿Waukesha County,﻿Eagle Centre,﻿Eagle,﻿WI,,43.00726,-88.323931,,﻿Attended by Rev. L. Schreiner,,﻿l_schreiner_001,﻿Rev.,﻿L. Schreiner,,,,,,,,1866,﻿,﻿,﻿Milwaukee,Milwaukee
﻿lac.wi.0008,﻿church,﻿St. Peter's,English,,,,﻿Chippewa County,﻿Chippewa County,﻿Eagle Point,﻿Eagle Point,﻿WI,,45.031628,-91.39599,,﻿Visited by Rev. J. B. Smeddink,,﻿j_b_smeddink_001,﻿Rev.,﻿J. B. Smeddink,,,,,,,,1866,﻿,﻿,﻿Milwaukee,Milwaukee
﻿mil.wi.0064,﻿church,﻿St. Peter's,English,,,,﻿Lafayette County,﻿La Fayette County,﻿Elk Grove,﻿Elk Grove,﻿WI,,42.653341,-90.331538,,﻿Attended by Rev. E. Exel,,﻿e_exel_001,﻿Rev.,﻿E. Exel,,,,,,,,1866,﻿,﻿,﻿Milwaukee,Milwaukee
﻿mil.wi.0065,﻿church,﻿St. Rosa's,English,,,,﻿Lafayette County,﻿La Fayette County,﻿Elk Grove,﻿Elk Grove,﻿WI,,42.671664,-90.390961,,"﻿Attended by Rev. J. Poelking, O.P.",,﻿j_poelking_001,﻿Rev.,﻿J. Poelking,﻿O.P.,,,,,,,1866,﻿,﻿,﻿Milwaukee,Milwaukee
﻿mil.wi.0067,﻿church,﻿St. Lawrence's,English,,,,﻿Walworth County,﻿Walworth County,﻿Elkhorn,﻿Elkhorn,﻿WI,,42.672793,-88.544545,,﻿Visited by Rev. L. Kenny,,﻿l_kenny_001,﻿Rev.,﻿L. Kenny,,,,,,,,1866,﻿,﻿,﻿Milwaukee,Milwaukee
﻿mil.wi.0066,﻿church,﻿Visitation B.V. Mary,English,,,,﻿Waukesha County,﻿Waukesha County,﻿Elm Grove,﻿Elm Grove,﻿WI,,43.044445,-88.074792,,,,﻿h_hattenberg_001,﻿Very Rev.,﻿H. Hattenberg,,,,,,,,1866,﻿,﻿,﻿Milwaukee,Milwaukee
﻿lac.wi.0009,﻿church,﻿St. Patrick's,English,,,,﻿Eau Claire County,﻿Eau Claire County,﻿Eau Claire,﻿Eau Claire,﻿WI,,44.811349,-91.498494,,,,﻿h_reinhardt_001,﻿Rev.,﻿H. Reinhardt,,,,,,,,1866,﻿,﻿,﻿Milwaukee,Milwaukee
﻿mil.wi.0068,﻿church,﻿St. Joseph's,English,,,,﻿Rock County,﻿Rock County,﻿Edgerton,﻿Edgerton,﻿WI,,42.844951,-89.064887,,﻿Attended by Rev. W. O'Connell,,﻿w_oconnell_001,﻿Rev.,﻿W. O'Connell,,,,,,,,1866,﻿,﻿,﻿Milwaukee,Milwaukee
﻿mil.wi.0069,﻿church,﻿Holy Ascension,English,,,,﻿Fond du Lac County,﻿Fond du Lac County,﻿Eden,﻿Eden,﻿WI,,43.693603,-88.360936,,﻿Attended by Rev. P. Magowan,,﻿p_magowan_001,﻿Rev.,﻿P. Magowan,,,,,,,,1866,﻿,﻿,﻿Milwaukee,Milwaukee
﻿mil.wi.0339,﻿church,﻿St. Columbkille's,English,,,,﻿Dodge County,,﻿Ella,,﻿WI,,,,,,,﻿e_mcguirk_001,﻿Rev.,﻿E. McGuirk,,,,,,,,1866,﻿,﻿,﻿Milwaukee,Milwaukee
﻿lac.wi.0011,﻿church,﻿St. Patrick's,English,,,,﻿St. Croix County,﻿St. Croix County,﻿Erin,﻿Erin Prairie,﻿WI,,45.067181,-92.448595,,,,﻿j_conroy_001,﻿Rev.,﻿J. Conroy,,,,,,,,1866,﻿,﻿,﻿Milwaukee,Milwaukee
﻿mil.wi.0071,﻿church,﻿St. Patrick's,English,,,,﻿Washington County,﻿Washington County,﻿Erin,﻿Erin,﻿WI,,43.22085,-88.343362,,﻿Attended by Rev. F. Tiernan,,﻿f_tiernan_001,﻿Rev.,﻿F. Tiernan,,,,,,,,1866,﻿,﻿,﻿Milwaukee,Milwaukee
﻿lac.wi.0095,﻿church,﻿St. Bridget's,English,,,,﻿Trempeleau County,,﻿Etrich,,﻿WI,,,,,﻿Attended by Rev. M. Marko,,﻿m_marko_001,﻿Rev.,﻿M. Marko,,,,,,,,1866,﻿,﻿,﻿Milwaukee,Milwaukee
﻿mil.wi.0072,﻿church,﻿St. John of God,English,,,,﻿Washington County,﻿Washington County,﻿Farmington,﻿Farmington,﻿WI,,43.513052,-88.110006,,﻿Visited by Rev. C. Rehrl,,﻿c_rehrl_001,﻿Rev.,﻿C. Rehrl,,,,,,,,1866,﻿,﻿,﻿Milwaukee,Milwaukee
﻿mil.wi.0073,﻿church,﻿St. Peter's,English,,,,﻿Washington County,﻿Washington County,﻿Farmington,﻿Farmington,﻿WI,,43.487414,-88.109612,,﻿Visited by Rev. C. Rehrl,,﻿c_rehrl_001,﻿Rev.,﻿C. Rehrl,,,,,,,,1866,﻿,﻿,﻿Milwaukee,Milwaukee
﻿mil.wi.0074,﻿church,﻿St. Holy Mother of Consolation,English,,,,﻿Dane County,﻿Dane County,﻿Fitzburgh,﻿Fitchburg,﻿WI,,42.951169,-89.402893,,,,﻿wil_oconnell_001,﻿Rev.,﻿Will. O'Connell,,,,,,,,1866,﻿,﻿,﻿Milwaukee,Milwaukee
﻿mil.wi.0075,﻿church,﻿St. Lewis',English,,,,﻿Fond du Lac County,﻿Fond du Lac County,﻿Fond du Lac,﻿Fond du Lac,﻿WI,,43.771582,-88.449415,,,,﻿j_c_perrodin_001,﻿Rev.,﻿J. C. Perrodin,,,,,,,,1866,﻿,﻿,﻿Milwaukee,Milwaukee
﻿mil.wi.0076,﻿church,﻿St. Patrick's,English,,,,﻿Fond du Lac County,﻿Fond du Lac County,﻿Fond du Lac,﻿Fond du Lac,﻿WI,,43.784721,-88.446755,,,,﻿j_colton_001,﻿Rev.,﻿J. Colton,,,,,,,,1866,﻿,﻿,﻿Milwaukee,Milwaukee
﻿mil.wi.0079,﻿church,﻿Immaculate Conception,English,,,,﻿Dodge County,﻿Dodge County,﻿Fox Lake,﻿Fox Lake,﻿WI,,43.565543,-88.906498,,,,﻿w_dougherty_001,﻿Rev.,﻿W. Dougherty,,,,,,,,1866,﻿,﻿,﻿Milwaukee,Milwaukee
﻿mil.wi.0080,﻿church,﻿St. John Baptist's,English,,,,﻿Fond du Lac County,﻿Fond du Lac County,﻿Foresttown,﻿Forest,﻿WI,,43.757996,-88.226643,,﻿Attended from Calvary Convent,,,,,,,,,,,,1866,﻿,﻿,﻿Milwaukee,Milwaukee
﻿lac.wi.0012,﻿church,﻿Immaculate Conception,English,,,,﻿Buffalo County,﻿Buffalo County,﻿Fountain City,﻿Fountain City,﻿WI,,44.130112,-91.716359,,,,﻿m_joerger_001,﻿Rev.,﻿M. Joerger,,,,,,,,1866,﻿,﻿,﻿Milwaukee,Milwaukee
﻿mil.wi.0081,﻿church,﻿St. Martin's,English,,,,﻿Milwaukee County,﻿Milwaukee County,﻿Franklin,﻿Franklin,﻿WI,,42.888627,-88.038419,,,,﻿p_ofarrell_001,﻿Rev.,﻿P. O'Farrell,,,,,,,,1866,﻿,﻿,﻿Milwaukee,Milwaukee
﻿mil.wi.0082,﻿church,﻿Sacred Heart of Jesus and Mary,English,,,,﻿Milwaukee County,﻿Milwaukee County,﻿Franklin,﻿Franklin,﻿WI,,43.072467,-87.618638,,,,﻿w_bonnenkamp_001,﻿Rev.,﻿W. Bonnenkamp,,,,,,,,1866,﻿,﻿,﻿Milwaukee,Milwaukee
﻿lac.wi.0096,﻿church,﻿St. Luke's,English,,,,﻿Sauk County,,﻿Franklin,,﻿WI,,,,,﻿Attended from Ithaca,,,,,,,,,,,,1866,﻿,﻿,﻿Milwaukee,Milwaukee
﻿mil.wi.0340,﻿church,﻿St. Lawrence's,English,,,,﻿Kewaunee County,,﻿Franklin,,﻿WI,,,,,﻿Attended from Kewaunee,,,,,,,,,,,,1866,﻿,﻿,﻿Milwaukee,Milwaukee
﻿mil.wi.0083,﻿church,﻿St. Nicholas',English,,,,﻿Ozaukee County,﻿Ozaukee County,﻿Freedonia,﻿Fredonia,﻿WI,,43.470555,-87.950646,,,,﻿h_j_muckerhaide_001,﻿Rev.,﻿H. J. Muckerhaide,,,,,,,,1866,﻿,﻿,﻿Milwaukee,Milwaukee
﻿mil.wi.0084,﻿church,﻿Mother of Dolors,English,,,,﻿Ozaukee County,﻿Ozaukee County,﻿Freedonia,﻿Fredonia,﻿WI,,42.670842,-89.209004,,﻿Attended by Rev. G. Strickner,,﻿geo_strickner_001,﻿Rev.,﻿G. Strickner,,,,,,,,1866,﻿,﻿,﻿Milwaukee,Milwaukee
﻿gre.wi.0010,﻿church,﻿St. Nicholas',English,,,,﻿Outagamie County,﻿Outagamie County,﻿Freedom,﻿Freedom,﻿WI,,44.386111,-88.288056,,,,﻿j_luytelaar_001,﻿Rev.,﻿J. Luytelaar,,,,,,,,1866,﻿,﻿,﻿Milwaukee,Milwaukee
﻿mil.wi.0086,﻿church,﻿St. Paul's,English,,,,﻿Waukesha County,﻿Waukesha County,﻿Genesee,﻿Genesee,﻿WI,,42.974661,-88.377606,,﻿Attended by Rev. --- Vahey,,﻿w_vahey_001,﻿Rev.,﻿--- Vahey,,,,,,,,1866,﻿,﻿,﻿Milwaukee,Milwaukee
﻿mil.wi.0087,﻿church,﻿St. Francis of Sales,English,,,,﻿Walworth County,﻿Walworth County,﻿Geneva,﻿Geneva,﻿WI,,42.638605,-88.459767,,,,﻿e_oconnor_001,﻿Rev.,﻿E. O'Connor,,,,,,,,1866,﻿,﻿,﻿Milwaukee,Milwaukee
﻿mil.wi.0088,﻿church,﻿St. Boniface's,English,,,,﻿Washington County,﻿Washington County,﻿Germantown,﻿Germantown,﻿WI,,43.234715,-88.161571,,,,﻿a_faekler_001,﻿Rev.,﻿A. Faekler,,,,,,,,1866,﻿,﻿,﻿Milwaukee,Milwaukee
﻿mil.wi.0089,﻿church,﻿St. Michael's,English,,,,﻿Milwaukee County,﻿Milwaukee County,﻿Granville,﻿Granville,﻿WI,,43.177508,-88.043978,,﻿Attended by Rev. Will. Mahony,,﻿wil_mahony_001,﻿Rev.,﻿Will. Mahony,,,,,,,,1866,﻿,﻿,﻿Milwaukee,Milwaukee
﻿mil.wi.0090,﻿church,﻿St. Catharine's,English,,,,﻿Milwaukee County,﻿Milwaukee County,﻿Granville,﻿Granville,﻿WI,,43.177508,-88.043978,,﻿Attended by Rev. L. Mueller,,﻿l_mueller_001,﻿Rev.,﻿L. Mueller,,,,,,,,1866,﻿,﻿,﻿Milwaukee,Milwaukee
﻿mil.wi.0091,﻿church,﻿St. Martin's,English,,,,﻿Milwaukee County,﻿Milwaukee County,﻿Granville,﻿Granville,﻿WI,,43.177508,-88.043978,,﻿Attended by Rev. L. Mueller,,﻿l_mueller_001,﻿Rev.,﻿L. Mueller,,,,,,,,1866,﻿,﻿,﻿Milwaukee,Milwaukee
﻿mil.wi.0092,﻿church,﻿St. Fridolin's,English,,,,﻿Sheboygan County,﻿Sheboygan County,﻿Glenbulah,﻿Glenbeulah,﻿WI,,43.79895,-88.046291,,﻿Attended by Rev. M. Haider,,﻿m_haider_001,﻿Rev.,﻿M. Haider,,,,,,,,1866,﻿,﻿,﻿Milwaukee,Milwaukee
﻿lac.wi.0097,﻿church,﻿St. Joseph's,English,,,,﻿Buffalo County,,﻿Glencoe,,﻿WI,,,,,﻿Attended by Rev. M. Joerger,,﻿m_joerger_001,﻿Rev.,﻿M. Joerger,,,,,,,,1866,﻿,﻿,﻿Milwaukee,Milwaukee
﻿mil.wi.0093,﻿church,﻿St. Sebastian's,English,,,,﻿Grant County,﻿Grant County,﻿Glenhaven,﻿Glen Haven,﻿WI,,42.827199,-91.071848,,﻿Attended from Potosi,,,,,,,,,,,,1866,﻿,﻿,﻿Milwaukee,Milwaukee
﻿mil.wi.0094,﻿church,﻿St. Joseph's,English,,,,﻿Ozaukee County,﻿Ozaukee County,﻿Grafton,﻿Grafton,﻿WI,,43.319503,-87.946456,,,,﻿ch_schroudenback_001,﻿Rev.,﻿Ch. Schroudenback,,,,,,,,1866,﻿,﻿,﻿Milwaukee,Milwaukee
﻿mil.wi.0095,﻿church,﻿St. Francis Xavier's,English,,,,﻿Ozaukee County,﻿Ozaukee County,﻿Grafton,﻿Grafton,﻿WI,,43.352328,-87.969748,,,,﻿ch_schroudenback_001,﻿Rev.,﻿Ch. Schroudenback,,,,,,,,1866,﻿,﻿,﻿Milwaukee,Milwaukee
﻿gre.wi.0011,﻿church,﻿Holy Cross,English,,,,﻿Wood County,﻿Wood County,﻿Grand Rapids,﻿Grand Rapids,﻿WI,,44.380134,-89.756769,,,,﻿l_gervin_001,﻿Rev.,﻿L. Gervin,,,,,,,,1866,﻿,﻿,﻿Milwaukee,Milwaukee
﻿mil.wi.0096,﻿church,﻿St. Mary's,English,,,,﻿Milwaukee County,﻿Milwaukee County,﻿Greenfield,﻿Greenfield,﻿WI,,42.961404,-88.012586,,﻿Attended by Rev. P. O'Farrell,,﻿p_ofarrell_001,﻿Rev.,﻿P. O'Farrell,,,,,,,,1866,﻿,﻿,﻿Milwaukee,Milwaukee
﻿mil.wi.0097,﻿church,﻿Holy Sacrament,﻿German,,,,﻿Milwaukee County,﻿Milwaukee County,﻿Greenfield,﻿Greenfield,﻿WI,,42.970611,-88.05414,,﻿Attended by Rev. A. Kieser,,﻿a_kieser_001,﻿Rev.,﻿A. Kieser,,,,,,,,1866,﻿,﻿,﻿Milwaukee,Milwaukee
﻿mil.wi.0341,﻿church,﻿St. John's,﻿French,,,,﻿Brown County,,﻿Greenbay,,﻿WI,,,,,,,,﻿Rev.,﻿--- Hoffen,﻿O.M.C.,,,,,,,1866,﻿,﻿,﻿Milwaukee,Milwaukee
﻿mil.wi.0342,﻿church,﻿St. Mary's,﻿German,,,,﻿Brown County,,﻿Greenbay,,﻿WI,,,,,,,﻿f_x_pfaller_002,﻿Rev.,﻿F. X. Pfaller,,,,,,,,1866,﻿,﻿,﻿Milwaukee,Milwaukee
﻿mil.wi.0343,﻿church,﻿St. Willibrod's,﻿Dutch,,,,﻿Brown County,,﻿Greenbay,,﻿WI,,,,,"﻿Attended by --- Hoffen, O.M.C.",,,﻿Rev.,﻿--- Hoffen,﻿O.M.C.,,,,,,,1866,﻿,﻿,﻿Milwaukee,Milwaukee
﻿mil.wi.0344,﻿church,﻿St. Patrick's,English,,,,﻿Brown County,,﻿Greenbay,,﻿WI,,,,,﻿Attended by Rev. W. Verboort,,﻿w_verboort_001,﻿Rev.,﻿W. Verboort,,,,,,,,1866,﻿,﻿,﻿Milwaukee,Milwaukee
﻿mil.wi.0098,﻿church,﻿St. Lawrence's,English,,,,﻿Washington County,﻿Washington County,﻿Hartford,﻿Hartford,﻿WI,,43.354195,-88.348337,,,,﻿m_weiss_001,﻿Rev.,﻿M. Weiss,,,,,,,,1866,﻿,﻿,﻿Milwaukee,Milwaukee
﻿mil.wi.0099,﻿church,﻿St. Kilian's,English,,,,﻿Washington County,﻿Washington County,﻿Hartford,﻿Hartford,﻿WI,,43.322406,-88.382373,,,,﻿p_schwaiger_001,﻿Rev.,﻿P. Schwaiger,,,,,,,,1866,﻿,﻿,﻿Milwaukee,Milwaukee
﻿mil.wi.0100,﻿church,﻿St. Francis',English,,,,﻿Grant County,﻿Grant County,﻿Hazel Green,﻿Hazel Green,﻿WI,,42.536699,-90.435959,,﻿Visited by the Dominican Fathers,,,,,,,,,,,,1866,﻿,﻿,﻿Milwaukee,Milwaukee
﻿mil.wi.0101,﻿church,﻿St. John's,English,,,,﻿Dodge County,﻿Dodge County,﻿Herman,﻿Herman,﻿WI,,43.375995,-88.480937,,﻿Attended by Rev. P. Schwaiger,,﻿p_schwaiger_001,﻿Rev.,﻿P. Schwaiger,,,,,,,,1866,﻿,﻿,﻿Milwaukee,Milwaukee
﻿mil.wi.0102,﻿church,﻿St. Joseph's,English,,,,﻿Sheboygan County,﻿Sheboygan County,﻿Herman,﻿Herman,﻿WI,,43.600762,-87.992268,,,,﻿j_a_arnold_001,﻿Rev.,﻿J. A. Arnold,,,,,,,,1866,﻿,﻿,﻿Milwaukee,Milwaukee
﻿mil.wi.0103,﻿church,﻿St. Fidelis',English,,,,﻿Sheboygan County,﻿Sheboygan County,﻿Herman,﻿Herman,﻿WI,,43.866723,-87.874615,,﻿Attended by Rev. A. Zuber,,﻿f_zuber_001,﻿Rev.,﻿A. Zuber,,,,,,,,1866,﻿,﻿,﻿Milwaukee,Milwaukee
﻿mil.wi.0104,﻿church,﻿St. Philip's,English,,,,﻿Iowa County,﻿Iowa County,﻿Highland,﻿Highland,﻿WI,,43.046303,-90.382599,,,,﻿pet_lavin_002,﻿Rev.,﻿P. Lavin,,,,,,,,1866,﻿,﻿,﻿Milwaukee,Milwaukee
﻿mil.wi.0105,﻿church,﻿St. John Nepomucene's,English,,,,﻿Iowa County,﻿Iowa County,﻿Highland,﻿Highland,﻿WI,,43.056902,-90.498795,,,,﻿f_x_weinhart_001,﻿Rev.,﻿F. X. Weinhart,,,,,,,,1866,﻿,﻿,﻿Milwaukee,Milwaukee
﻿mil.wi.0346,﻿church,﻿St. Francis Xavier's,English,,,,﻿Brown County,,﻿Holland,,﻿WI,,,,,,,﻿bon_de-goy_001,﻿Rev.,﻿Bonavent. De Goy,﻿O.M.C.,,,,,,,1866,﻿,﻿,﻿Milwaukee,Milwaukee
﻿mil.wi.0347,﻿church,﻿St. Patrick's,English,,,,﻿Brown County,,﻿Holland,,﻿WI,,,,,,,﻿bon_de-goy_001,﻿Rev.,﻿Bonavent. De Goy,﻿O.M.C.,,,,,,,1866,﻿,﻿,﻿Milwaukee,Milwaukee
﻿mil.wi.0106,﻿church,﻿St. Malachy's,English,,,,﻿Dodge County,﻿Dodge County,﻿Horicon,﻿Horicon,﻿WI,,43.444012,-88.633196,,﻿Attended from Beaver Dam,,,,,,,,,,,,1866,﻿,﻿,﻿Milwaukee,Milwaukee
﻿mil.wi.0107,﻿church,﻿St. Anne's,English,,,,﻿Calumet County,﻿Calumet County,﻿Holstein,﻿New Holstein,﻿WI,,43.896117,-88.123037,,﻿Attended from Calvary,,,,,,,,,,,,1866,﻿,﻿,﻿Milwaukee,Milwaukee
﻿lac.wi.0098,﻿church,﻿St. Mary's of Loretto,English,,,,﻿Sauk County,,﻿Honey Creek,,﻿WI,,,,,﻿Attended from Sauk City,,,,,,,,,,,,1866,﻿,﻿,﻿Milwaukee,Milwaukee
﻿lac.wi.0013,﻿church,﻿St. James',English,,,,﻿St. Croix County,﻿St. Croix County,﻿Hudson,﻿Hudson,﻿WI,,44.97469,-92.75687,,,,﻿s_seif_001,﻿Rev.,﻿S. Seif,,,,,,,,1866,﻿,﻿,﻿Milwaukee,Milwaukee
﻿mil.wi.0108,﻿church,﻿St. Kilian's,English,,,,﻿Walworth County,,﻿Hudson,,﻿WI,,42.588688,-88.359873,,﻿Attended by Rev. J. H. Karphage,,﻿j_h_karphage_001,﻿Rev.,﻿J. H. Karphage,,,,,,,,1866,﻿,﻿,﻿Milwaukee,Milwaukee
﻿mil.wi.0109,﻿church,﻿St. Augustine's,English,,,,﻿Ozaukee County,﻿Washington County,﻿Jackson,﻿Jackson,﻿WI,,43.384316,-88.041167,,﻿Attended by Rev. C. Rehrl,,﻿c_rehrl_001,﻿Rev.,﻿C. Rehrl,,,,,,,,1866,﻿,﻿,﻿Milwaukee,Milwaukee
﻿mil.wi.0110,﻿church,﻿St. Mary's Immaculate Conception,English,,,,﻿Ozaukee County,﻿Washington County,﻿Jackson,﻿Jackson,﻿WI,,43.38195,-87.618638,,﻿Attended by Rev. W. Mahony,,﻿w_mahony_002,﻿Rev.,﻿W. Mahony,,,,,,,,1866,﻿,﻿,﻿Milwaukee,Milwaukee
﻿mil.wi.0111,﻿church,﻿St. Patrick's,English,,,,﻿Rock County,﻿Rock County,﻿Janesville,﻿Janesville,﻿WI,,42.676364,-89.025287,,,,﻿jam_doyle_001,﻿Rev.,﻿James Doyle,,,,,,,,1866,﻿,﻿,﻿Milwaukee,Milwaukee
﻿mil.wi.0112,﻿church,﻿St. John Baptist's,English,,,,﻿Jefferson County,﻿Jefferson County,﻿Jefferson,﻿Jefferson,﻿WI,,43.006946,-88.80221,,,,﻿j_jansen_001,﻿Rev.,﻿J. Jansen,,,,,,,,1866,﻿,﻿,﻿Milwaukee,Milwaukee
﻿mil.wi.0113,﻿church,﻿St. Lawrence's,English,,,,﻿Jefferson County,﻿Jefferson County,﻿Jefferson,﻿Jefferson,﻿WI,,43.004965,-88.779191,,,,﻿f_x_obermueller_001,﻿Rev.,﻿F. X. Obermueller,,,,,,,,1866,﻿,﻿,﻿Milwaukee,Milwaukee
﻿lac.wi.0014,﻿church,﻿Nativity B.V.M.,English,,,,﻿Monroe County,﻿Monroe County,﻿Jefferson,﻿Jefferson,﻿WI,,43.798096,-90.686868,,,,﻿flo_zadzioski_001,﻿Rev.,﻿Florent Zadzioski,﻿O.M.C.,,,,,,,1866,﻿,﻿,﻿Milwaukee,Milwaukee
﻿lac.wi.0099,﻿church,﻿St. Fridolin's,English,,,,﻿Sauk County,,﻿Ironton,,﻿WI,,,,,﻿Attended by Rev. J. Beau,,﻿j_beau_001,﻿Rev.,﻿J. Beau,,,,,,,,1866,﻿,﻿,﻿Milwaukee,Milwaukee
﻿lac.wi.0015,﻿church,﻿Nativity B.V.M.,English,,,,﻿Richland County,﻿Richland County,﻿Ithaca,﻿Ithaca,﻿WI,,43.340818,-90.281792,,,,﻿j_beau_001,﻿Rev.,﻿J. Beau,,,,,,,,1866,﻿,﻿,﻿Milwaukee,Milwaukee
﻿mil.wi.0114,﻿church,﻿St. Mark's,English,,,,﻿Kenosha County,﻿Kenosha County,﻿Kenosha,﻿Kenosha,﻿WI,,42.568136,-87.824919,,,,﻿g_riordan_001,﻿Rev.,﻿G. Riordan,,,,,,,,1866,﻿,﻿,﻿Milwaukee,Milwaukee
﻿mil.wi.0115,﻿church,﻿St. George's,﻿German,,,,﻿Kenosha County,﻿Kenosha County,﻿Kenosha,﻿Kenosha,﻿WI,,42.581123,-87.872016,,,,﻿wil_bernard_001,﻿Rev.,﻿Will. Bernard,,,,,,,,1866,﻿,﻿,﻿Milwaukee,Milwaukee
﻿mil.wi.0116,﻿church,﻿St. Pius',English,,,,﻿Lafayette County,﻿Lafayette County,﻿Kendaltown,﻿Kendall,﻿WI,,42.765975,-90.243231,,﻿Attended by Rev. A. David,,﻿a_david_001,﻿Rev.,﻿A. David,,,,,,,,1866,﻿,﻿,﻿Milwaukee,Milwaukee
﻿gre.wi.0014,﻿mission,﻿St. Michael's,English,"﻿Mission of the Menomonee Tribe, vacant.",,,﻿Shawano County,﻿Menominee County,﻿Keshena,﻿Keshena,﻿WI,,45.030475,-88.74777,,,,,,,,,,,,,,1866,﻿,﻿,﻿Milwaukee,Milwaukee
﻿mil.wi.0117,﻿church,﻿St. Bridget's,English,,,,﻿Washington County,﻿Washington County,﻿Kewaskee,﻿Kewaskum,﻿WI,,43.78444,-88.787868,,,,﻿m_wenker_001,﻿Rev.,﻿M. Wenker,,,,,,,,1866,﻿,﻿,﻿Milwaukee,Milwaukee
﻿mil.wi.0118,﻿church,﻿St. Michael's,English,,,,﻿Washington County,﻿Washington County,﻿Kewaskum,﻿Kewaskum,﻿WI,,43.52083,-88.228985,,﻿Attended by Rev. C. Rehrl,,﻿c_rehrl_001,﻿Rev.,﻿C. Rehrl,,,,,,,,1866,﻿,﻿,﻿Milwaukee,Milwaukee
﻿mil.wi.0119,﻿church,﻿Holy Trinity,English,,,,﻿Washington County,﻿Washington County,﻿Kewaskum,﻿Kewaskum,﻿WI,,43.52083,-88.228985,,﻿Attended by Rev. J. Reindl,,﻿j_reindl_001,﻿Rev.,﻿J. Reindl,,,,,,,,1866,﻿,﻿,﻿Milwaukee,Milwaukee
﻿gre.wi.0015,﻿church,﻿Holy Rosary,English,,,,﻿Kewaunee County,﻿Kewaunee County,﻿Kewaunee,﻿Kewaunee,﻿WI,,44.457712,-87.50662,,,,﻿e_van-steenwyck_001,﻿Rev.,﻿E. Van Steenwyck,,,,,,,,1866,﻿,﻿,﻿Milwaukee,Milwaukee
﻿mil.wi.0350,﻿church,﻿St. Cecilia's,English,,,,﻿Columbia County,,﻿Kilburn City,,﻿WI,,,,,﻿Attended by Rev. P. Montague,,﻿p_montague_002,﻿Rev.,﻿P. Montague,,,,,,,,1866,﻿,﻿,﻿Milwaukee,Milwaukee
﻿lac.wi.0100,﻿church,﻿St. Bridget's,English,,,,﻿Juneau County,,﻿Kildare,,﻿WI,,,,,,,﻿p_montague_002,﻿Rev.,﻿P. Montague,,,,,,,,1866,﻿,﻿,﻿Milwaukee,Milwaukee
﻿gre.wi.0016,﻿church,﻿St. Anne's,English,,,,﻿Manitowoc County,﻿Manitowoc County,﻿Kossuth,﻿Kossuth,﻿WI,,44.206988,-87.756651,,﻿Attended by Rev. J. Lang,,﻿j_lang_001,﻿Rev.,﻿J. Lang,,,,,,,,1866,﻿,﻿,﻿Milwaukee,Milwaukee
﻿mil.wi.0120,﻿church,﻿St. James',English,,,,﻿Milwaukee County,﻿Milwaukee County,﻿Lake Town,﻿Lake,﻿WI,,43.04848,-88.000907,,﻿Attended from New-Coeln,,,,,,,,,,,,1866,﻿,﻿,﻿Milwaukee,Milwaukee
﻿mil.wi.0121,﻿church,﻿St. Mary's ad Fontem,English,,,,﻿Marquette County,,﻿La Cote St. Marie,,﻿WI,,43.876085,-89.110883,,﻿Attended by Rev. E. Gray,,﻿e_gray_001,﻿Rev.,﻿E. Gray,,,,,,,,1866,﻿,﻿,﻿Milwaukee,Milwaukee
﻿lac.wi.0001,﻿church,﻿St. Mary's,English,,,,﻿La Crosse County,,﻿La Crosse,﻿La Crosse,﻿WI,,43.813775,-91.251902,,,,﻿m_m_marco_001,﻿Rev.,﻿M. M. Marco,,,,,,,,1866,﻿,﻿,﻿Milwaukee,Milwaukee
﻿mil.wi.0122,﻿church,﻿St. Columban's,English,,,,﻿Waukesha County,﻿Waukesha County,﻿Lake Five,﻿Lake Five,﻿WI,,43.192506,-88.270927,,﻿Attended by Rev. F. Tiernan,,﻿f_tiernan_001,﻿Rev.,﻿F. Tiernan,,,,,,,,1866,﻿,﻿,﻿Milwaukee,Milwaukee
﻿mil.wi.0123,﻿church,﻿St. Clement's,English,,,,﻿Grant County,﻿Grant County,﻿Lancaster,﻿Lancaster,﻿WI,,42.847491,-90.710682,,﻿Attended by Rev. H. J. Albers,,﻿h_j_albers_001,﻿Rev.,﻿H. J. Albers,,,,,,,,1866,﻿,﻿,﻿Milwaukee,Milwaukee
﻿lac.wi.0101,﻿church,﻿St. Joseph's,English,,,,﻿La Pointe County,,﻿La Pointe,,﻿WI,,,,,﻿Attended from Bayfield,,,,,,,,,,,,1866,﻿,﻿,﻿Milwaukee,Milwaukee
﻿mil.wi.0351,﻿church,﻿St. Tinbar's,English,,,,﻿Waupana County,,﻿Lebanon,,﻿WI,,,,,﻿Attended by Rev. Christ. Verweyst,,﻿chr_verweyst_002,﻿Rev.,﻿Christ. Verweyst,,,,,,,,1866,﻿,﻿,﻿Milwaukee,Milwaukee
﻿lac.wi.0102,﻿church,﻿St. James',English,,,,﻿Bad Axe County,,﻿Liberty Pole,,﻿WI,,,,,﻿Attended by Rev. P. Murphy,,﻿p_murphy_004,﻿Rev.,﻿P. Murphy,,,,,,,,1866,﻿,﻿,﻿Milwaukee,Milwaukee
﻿mil.wi.0124,﻿church,﻿St. Rosa's,English,,,,﻿Sheboygan County,﻿Sheboygan County,﻿Lima,﻿Lima,﻿WI,,43.675386,-87.874615,,﻿Visited from Sheboygan,,,,,,,,,,,,1866,﻿,﻿,﻿Milwaukee,Milwaukee
﻿mil.wi.0352,﻿church,﻿St. Peter's,English,,,,﻿Door County,,﻿Lincoln Town,,﻿WI,,,,,﻿Attended by Rev. Ph. Crud,,﻿ph_crud_001,﻿Rev.,﻿Ph. Crud,,,,,,,,1866,﻿,﻿,﻿Milwaukee,Milwaukee
﻿lac.wi.0103,﻿church,﻿St. Michael's,English,,,,﻿Juneau County,,﻿Lindina,,﻿WI,,,,,﻿Attended from Lisbon,,,,,,,,,,,,1866,﻿,﻿,﻿Milwaukee,Milwaukee
﻿lac.wi.0016,﻿church,﻿St. Mary's,English,,,,﻿Juneau County,﻿Juneau County,﻿Lindon,﻿Lyndon,﻿WI,,43.66625,-89.878576,,﻿Visited by Rev. P. Montague,,﻿p_montague_002,﻿Rev.,﻿P. Montague,,,,,,,,1866,﻿,﻿,﻿Milwaukee,Milwaukee
﻿lac.wi.0104,﻿church,﻿St. Paul's,English,,,,﻿Juneau County,,﻿Lisbon,,﻿WI,,,,,,,﻿pet_lavin_002,﻿Rev.,﻿John Casey,,,,,,,,1866,﻿,﻿,﻿Milwaukee,Milwaukee
﻿gre.wi.0017,﻿church,﻿St. John Nepomucene's,English,,,,﻿Outagamie County,﻿Outagamie County,﻿Little Chute,﻿Little Chute,﻿WI,,44.278276,-88.314417,,,,﻿a_j_verberk_001,﻿Rev.,﻿A. J. Verberk,,,,,,,,1866,﻿,﻿,﻿Milwaukee,Milwaukee
﻿mil.wi.0126,﻿church,﻿St. Andrew's,English,,,,﻿Dodge County,﻿Dodge County,﻿Loomara,﻿Lomira,﻿WI,,43.573118,-88.550108,,﻿Attended by Rev. E. Henzler,,﻿e_henzler_002,﻿Rev.,﻿E. Henzler,,,,,,,,1866,﻿,﻿,﻿Milwaukee,Milwaukee
﻿mil.wi.0128,﻿church,﻿St. Raphael's,English,,,,﻿Dane County,﻿Dane County,﻿Madison,﻿Madison,﻿WI,,43.072394,-89.386004,,,,﻿j_schmith_001,﻿Rev.,﻿J. Schmith,,,,,,,,1866,﻿,﻿,﻿Milwaukee,Milwaukee
﻿mil.wi.0128,﻿church,﻿St. Raphael's,English,,,,﻿Dane County,﻿Dane County,﻿Madison,﻿Madison,﻿WI,,43.072394,-89.386004,,,,,﻿Rev.,﻿A. Graves,,,,,,,,1866,﻿,﻿,﻿Milwaukee,Milwaukee
﻿mil.wi.0129,﻿church,﻿Holy Redeemer's Church,﻿German,,,,﻿Dane County,﻿Dane County,﻿Madison,﻿Madison,﻿WI,,43.075608,-89.389217,,,,﻿m_obermueller_001,﻿Rev.,﻿M. Obermueller,,,,,,,,1866,﻿,﻿,﻿Milwaukee,Milwaukee
﻿mil.wi.0353,﻿church,﻿St. Charles Borromeo's,English,,,,﻿Winnebago County,,﻿Manasha,,﻿WI,,,,,,,﻿w_wilkins_001,﻿Rev.,﻿W. Wilkins,,,,,,,,1866,﻿,﻿,﻿Milwaukee,Milwaukee
﻿mil.wi.0130,﻿church,﻿St. Boniface's,English,,,,﻿Manitowoc County,﻿Manitowoc County,﻿Manitowoc,﻿Manitowoc,﻿WI,,44.088606,-87.657584,,,,﻿w_c_verhoef_001,﻿Rev.,﻿W. C. Verhoef,﻿O.S.C.,,,,,,,1866,﻿,﻿,﻿Milwaukee,Milwaukee
﻿mil.wi.0354,﻿church,﻿Holy Maternity,English,,,,﻿Manitowoc County,,﻿Manitowoc Rapids,,﻿WI,,,,,,,﻿j_pickel_001,﻿Rev.,﻿J. Pickel,,,,,,,,1866,﻿,﻿,﻿Milwaukee,Milwaukee
﻿gre.wi.0020,﻿church,﻿St. Patrick's,English,,,,﻿Manitowoc County,﻿Manitowoc County,﻿Maple Grove,﻿Maple Grove,﻿WI,,44.188884,-87.923628,,,,﻿e_m_mcginnity_001,﻿Rev.,﻿E. M. McGinnity,,,,,,,,1866,﻿,﻿,﻿Milwaukee,Milwaukee
﻿mil.wi.0131,﻿church,﻿St. Catharine's,English,,,,﻿Waukesha County,﻿Waukesha County,﻿Mapleton,﻿Oconomowoc,﻿WI,,43.17481,-88.458349,,,,﻿m_hobbs_001,﻿Rev.,﻿M. Hobbs,,,,,,,,1866,﻿,﻿,﻿Milwaukee,Milwaukee
﻿lac.wi.0017,﻿church,﻿St. Mary's Nativity,English,,,,﻿Marathon County,﻿Marathon County,﻿Marathon,﻿Marathon,﻿WI,,44.930472,-89.84021,,﻿Visited by Rev. L. Lux,,,,,,,,,,,,1866,﻿,﻿,﻿Milwaukee,Milwaukee
﻿mil.wi.0132,﻿church,﻿Holy Cross,English,,,,﻿Fond du Lac County,﻿Fond du Lac County,﻿Marshfield,﻿Marshfield,﻿WI,,43.8721,-88.187668,,﻿Attended by the Convent of the Capuchin Fathers of Calvary,,,,,,,,,,,,1866,﻿,﻿,﻿Milwaukee,Milwaukee
﻿mil.wi.0133,﻿church,﻿St. Joseph's,English,,,,﻿Fond du Lac County,﻿Fond du Lac County,﻿Marshfield,﻿Marshfield,﻿WI,,43.855266,-88.190077,,﻿Attended from Calvary,,,,,,,,,,,,1866,﻿,﻿,﻿Milwaukee,Milwaukee
﻿mil.wi.0134,﻿church,﻿Visitation B.V.M.,English,,,,﻿Calumet County,﻿Fond du Lac County,﻿Marytown,﻿Marytown,﻿WI,,43.910993,-88.203431,,,,﻿daniel_001,﻿Rev. Father,﻿Daniel,﻿O.M.C.,,,,,,,1866,﻿,﻿,﻿Milwaukee,Milwaukee
﻿mil.wi.0135,﻿church,﻿St. Mary's,English,,,,﻿Dodge County,﻿Dodge County,﻿Mayville,﻿Mayville,﻿WI,,43.492936,-88.540727,,,,﻿e_henzler_002,﻿Rev.,﻿E. Henzler,,,,,,,,1866,﻿,﻿,﻿Milwaukee,Milwaukee
﻿mil.wi.0136,﻿church,﻿St. Isidore's,English,,,,﻿Manitowoc County,﻿Manitowoc County,﻿Meeme,﻿Meeme,﻿WI,,43.920549,-87.831478,,,,﻿th_mcdonnell_001,﻿Rev.,﻿Th. McDonnell,,,,,,,,1866,﻿,﻿,﻿Milwaukee,Milwaukee
﻿lac.wi.0105,﻿church,﻿St. Francis Assisium,English,,,,﻿Dunn County,,﻿Menomenee,,﻿WI,,,,,﻿Attended by Rev. J. B. Smeddink,,﻿j_b_smeddink_001,﻿Rev.,﻿J. B. Smeddink,,,,,,,,1866,﻿,﻿,﻿Milwaukee,Milwaukee
﻿mil.wi.0137,﻿church,﻿St. Mary's Immaculate Conception,English,,,,﻿Grant County,﻿Grant County,﻿Menomenee,﻿Hazel Green,﻿WI,,42.511189,-90.63192,,﻿Attended by Rev. A. Rask,,﻿a_rask_001,﻿Rev.,﻿A. Rask,,,,,,,,1866,﻿,﻿,﻿Milwaukee,Milwaukee
﻿mil.wi.0138,﻿church,﻿St. James',English,,﻿P. O. Fussville,,﻿Waukesha County,﻿Waukesha County,﻿Menomonee,﻿Menomonee Falls,﻿WI,,43.136322,-88.18306,,,,,﻿Rev.,﻿--- Kirwin,,,,,,,,1866,﻿,﻿,﻿Milwaukee,Milwaukee
﻿mil.wi.0443,﻿church,﻿St. Anthony's,English,,,,﻿Waukesha County,﻿Waukesha County,﻿Menomonee,﻿Menomonee Falls,﻿WI,,,,,,,,﻿Rev.,﻿L. M. Mueller,,,,,,,,1866,﻿,﻿,﻿Milwaukee,Milwaukee
﻿mil.wi.0139,﻿church,﻿St. James',English,,,,﻿Ozaukee County,﻿Washington County,﻿Mequon,﻿Mequon,﻿WI,,43.38195,-87.618638,,﻿Attended by Rev. Ch. Schroubenback,,﻿ch_schroubenback_001,﻿Rev.,﻿Ch. Schroubenback,,,,,,,,1866,﻿,﻿,﻿Milwaukee,Milwaukee
﻿mil.wi.0140,﻿church,﻿St. John Baptist's,English,,,,﻿Grant County,﻿Iowa County,﻿Mifflin,﻿Miffin,﻿WI,,42.871105,-90.354015,,﻿Attended by Rev. D. McGinnity,,﻿d_mcginnity_001,﻿Rev.,﻿D. McGinnity,,,,,,,,1866,﻿,﻿,﻿Milwaukee,Milwaukee
﻿mil.wi.0141,﻿church,﻿St. Malachy's,English,,,,﻿Jefferson County,﻿Jefferson County,﻿Milford,﻿Milford,﻿WI,,43.188369,-88.733814,,﻿Attended by Rev. H. Roche,,﻿h_roche_001,﻿Rev.,﻿H. Roche,,,,,,,,1866,﻿,﻿,﻿Milwaukee,Milwaukee
﻿mil.wi.0142,﻿church,﻿St. Paul's,English,,,,﻿Iowa County,﻿Iowa County,﻿Mineral Point,﻿Mineral Point,﻿WI,,42.857093,-90.188688,,,,﻿f_mcgann_001,﻿Rev.,﻿F. McGann,,,,,,,,1866,﻿,﻿,﻿Milwaukee,Milwaukee
﻿mil.wi.0355,﻿church,﻿Invention of the Holy Cross,English,,,,﻿Manitowoc County,,﻿Mishicot,,﻿WI,,,,,﻿Attended by Rev. J. Stehle,,﻿j_stehle_001,﻿Rev.,﻿J. Stehle,,,,,,,,1866,﻿,﻿,﻿Milwaukee,Milwaukee
﻿mil.wi.0356,﻿church,﻿St. Mary's,﻿Bohemian,,,,﻿Manitowoc County,,﻿Mishicot,,﻿WI,,,,,﻿Attended by Rev. J. Lang,,﻿f_lang_001,﻿Rev.,﻿J. Lang,,,,,,,,1866,﻿,﻿,﻿Milwaukee,Milwaukee
﻿mil.wi.0444,﻿church,﻿St. Francis Regis,English,,,,﻿Sheboygan County,﻿Sheboygan County,﻿Mitchell,﻿Mitchell,﻿WI,,,,,﻿Attended from Cascade,,,,,,,,,,,,1866,﻿,﻿,﻿Milwaukee,Milwaukee
﻿mil.wi.0144,﻿church,﻿St. John's,English,,,,﻿Waukesha County,﻿Waukesha County,﻿Monches,﻿Merton,﻿WI,,43.140603,-88.308192,,,,﻿f_tiernan_001,﻿Rev.,﻿F. Tiernan,,,,,,,,1866,﻿,﻿,﻿Milwaukee,Milwaukee
﻿mil.wi.0145,﻿church,﻿St. Victor's,English,,,,﻿Green County,﻿Green County,﻿Monroe,﻿Monroe,﻿WI,,42.598221,-89.635254,,,,﻿f_r_sullivan_001,﻿Rev.,﻿F. R. Sullivan,,,,,,,,1866,﻿,﻿,﻿Milwaukee,Milwaukee
﻿mil.wi.0357,﻿church,﻿Gethsemane Church,English,,,,﻿Marquette County,,﻿Montello,,﻿WI,,,,,,,﻿a_fagan_001,﻿Rev.,﻿A. Fagan,,,,,,,,1866,﻿,﻿,﻿Milwaukee,Milwaukee
﻿mil.wi.0358,﻿church,﻿St. Bridget's,English,,,,﻿Brown County,,﻿Morristown,,﻿WI,,,,,﻿Attended by Rev. W. A. Verboort,,﻿w_a_verboort_002,﻿Rev.,﻿W. A. Verboort,,,,,,,,1866,﻿,﻿,﻿Milwaukee,Milwaukee
﻿mil.wi.0147,﻿church,﻿St. Lawrence O'Toole's,English,,,,﻿Grant County,﻿Grant County,﻿Mount Hope,﻿Mount Hope,﻿WI,,43.006918,-90.816792,,﻿Attended by Rev. D. McGinnity,,﻿d_mcginnity_001,﻿Rev.,﻿D. McGinnity,,,,,,,,1866,﻿,﻿,﻿Milwaukee,Milwaukee
﻿mil.wi.0359,﻿church,﻿St. Patrick's,English,,,,﻿Juneau County,,﻿Mouston,,﻿WI,,,,,﻿Visited by Rev. P. Montague,,,,,,,,,,,,1866,﻿,﻿,﻿Milwaukee,Milwaukee
﻿mil.wi.0148,﻿church,﻿St. Barnabas',English,,,,﻿Dane County,﻿Dane County,﻿Mozzomanie,﻿Mazomanie,﻿WI,,43.172687,-89.791703,,,,﻿d_mcginnity_001,﻿Rev.,﻿D. McGinnity,,,,,,,,1866,﻿,﻿,﻿Milwaukee,Milwaukee
﻿mil.wi.0149,﻿church,﻿St. Bartholomew's,English,,,,﻿Grant County,﻿Grant County,﻿Muscoda,﻿Muscoda,﻿WI,,43.184987,-90.443181,,﻿Attended by Rev. F. Weinhart,,﻿f_x_weinhart_001,﻿Rev.,﻿F. Weinhart,,,,,,,,1866,﻿,﻿,﻿Milwaukee,Milwaukee
﻿mil.wi.0150,﻿church,﻿St. Matthew's,English,,,,﻿Dodge County,﻿Dodge County,﻿Neosha,﻿Neosho,﻿WI,,43.313008,-88.51959,,﻿Attended by Rev. P. Schwaiger,,,﻿Rev.,﻿P. Schwaiger,,,,,,,,1866,﻿,﻿,﻿Milwaukee,Milwaukee
﻿mil.wi.0151,﻿church,﻿St. Valerius',English,,,,﻿Waukesha County,﻿Waukesha County,﻿New-Berlin,﻿New Berlin,﻿WI,,42.976455,-88.10839,,﻿Attended from Franklin,,,,,,,,,,,,1866,﻿,﻿,﻿Milwaukee,Milwaukee
﻿mil.wi.0360,﻿church,﻿St. Mary's ad Nives,English,,,,﻿Door County,,﻿New-Brussel,,﻿WI,,,,,﻿Attended by Rev. Ph. Crud,,﻿ph_crud_001,﻿Rev.,﻿Ph. Crud,,,,,,,,1866,﻿,﻿,﻿Milwaukee,Milwaukee
﻿mil.wi.0152,﻿church,﻿Holy Trinity,English,,,,﻿Washington County,﻿Washington County,﻿Newburgh,﻿Newburg,﻿WI,,43.431667,-88.046481,,,,﻿c_rehrl_001,﻿Rev.,﻿C. Rehrl,,,,,,,,1866,﻿,﻿,﻿Milwaukee,Milwaukee
﻿mil.wi.0154,﻿church,﻿St. Augustine's,English,,,,﻿Lafayette County,﻿Lafayette County,﻿New-Diggings,﻿New Diggings,﻿WI,,42.534075,-90.334564,,"﻿Attended by Rev. H. Nuyts, O.S.C.",,﻿h_nuyts_001,﻿Rev.,﻿H. Nuyts,﻿O.S.C.,,,,,,,1866,﻿,﻿,﻿Milwaukee,Milwaukee
﻿gre.wi.0022,﻿church,﻿St. Kilian's,English,,,,﻿Brown County,﻿Brown County,﻿New-Franken,﻿New Franken,﻿WI,,44.53103,-87.825846,,,,﻿f_camenzind_001,﻿Rev.,﻿F. Camenzind,,,,,,,,1866,﻿,﻿,﻿Milwaukee,Milwaukee
﻿mil.wi.0155,﻿church,﻿St. Stephens's,English,,,,﻿Milwaukee County,﻿Milwaukee County,﻿New-Koeln,﻿Milwaukee,﻿WI,,43.019554,-87.916512,,,,﻿m_minderer_001,﻿Rev.,﻿M. Minderer,,,,,,,,1866,﻿,﻿,﻿Milwaukee,Milwaukee
﻿mil.wi.0361,﻿church,﻿St. Francis',English,,,,﻿Waupaca County,,﻿New-London,,﻿WI,,,,,,,﻿chr_verweyst_002,﻿Rev.,﻿Christ. Verweyst,,,,,,,,1866,﻿,﻿,﻿Milwaukee,Milwaukee
﻿mil.wi.0157,﻿church,﻿St. Peter's,English,,,,﻿Manitowoc County,﻿Manitowoc County,﻿Newtown,﻿Newtown,﻿WI,,43.993743,-87.726333,,﻿Attended from Manitowoc,,,,,,,,,,,,1866,﻿,﻿,﻿Milwaukee,Milwaukee
﻿mil.wi.0362,﻿church,﻿St. Francis of Sales,English,,,,﻿Milwaukee County,,﻿Nojoshing,,﻿WI,,,,,,,﻿m_heiss_002,﻿Very Rev.,﻿M. Heiss,,﻿Rector of the Salesianum,,,,,,1866,﻿,﻿,﻿Milwaukee,Milwaukee
﻿mil.wi.0158,﻿church,﻿St. Matthew's,English,,,,﻿Milwaukee County,﻿Milwaukee County,﻿Oak Creek,﻿Oak Creek,﻿WI,,42.874655,-87.86136,,﻿Attended by Rev. J. S. Munich,,﻿j_s_munich_001,﻿Rev.,﻿J. S. Munich,,,,,,,,1866,﻿,﻿,﻿Milwaukee,Milwaukee
﻿lac.wi.0106,﻿church,﻿Nativity B.V.M.,English,,,,﻿Pierce County,,﻿Oak Grove,,﻿WI,,,,,﻿Attended by Rev. S. Seif,,﻿s_seif_001,﻿Rev.,﻿S. Seif,,,,,,,,1866,﻿,﻿,﻿Milwaukee,Milwaukee
﻿mil.wi.0159,﻿church,﻿St. Jerome's,English,,,,﻿Waukesha County,﻿Waukesha County,﻿Oconomowoc,﻿Oconomowoc,﻿WI,,43.097305,-88.493677,,﻿Visited by Rev. M. Hobbs,,﻿m_hobbs_001,﻿Rev.,﻿M. Hobbs,,,,,,,,1866,﻿,﻿,﻿Milwaukee,Milwaukee
﻿gre.wi.0024,﻿church,﻿St. Peter's,English,,,,﻿Oconto County,﻿Oconto County,﻿Oconto,﻿Oconto,﻿WI,,44.887571,-87.883319,,,,﻿e_spierings_001,﻿Rev.,﻿E. Spierings,,,,,,,,1866,﻿,﻿,﻿Milwaukee,Milwaukee
﻿mil.wi.0160,﻿church,﻿St. Matthew's,English,,,,﻿Fond du Lac County,﻿Fond du Lac County,﻿Osceola,﻿Osceola,﻿WI,,43.681371,-88.226643,,﻿Attended by Rev. P. McGowan,,﻿tho_smith_001,﻿Rev.,﻿P. McGowan,,,,,,,,1866,﻿,﻿,﻿Milwaukee,Milwaukee
﻿gre.wi.0025,﻿church,﻿St. Peter's,English,,,,﻿Winnebago County,﻿Winnebago County,﻿Oshkosh,﻿Oshkosh,﻿WI,,44.019711,-88.544474,,,,﻿tho_keenan_001,﻿Rev.,﻿Tho. Keenan,,,,,,,,1866,﻿,﻿,﻿Milwaukee,Milwaukee
﻿gre.wi.0026,﻿church,﻿St. Mary's,﻿German,,,,﻿Winnebago County,﻿Winnebago County,﻿Oshkosh,﻿Oshkosh,﻿WI,,44.012364,-88.619724,,,,,,﻿Tho. Keenan,,,,,,,,1866,﻿,﻿,﻿Milwaukee,Milwaukee
﻿mil.wi.0164,﻿church,﻿St. Bruno's,English,,,,﻿Waukesha County,﻿Waukesha County,﻿Ottowa,﻿Ottawa,﻿WI,,42.993896,-88.512589,,,,﻿l_schreiner_001,﻿Rev.,﻿L. Schreiner,,,,,,,,1866,﻿,﻿,﻿Milwaukee,Milwaukee
﻿mil.wi.0165,﻿church,﻿St. John Baptist's,English,,,,﻿Kenosha County,﻿Kenosha County,﻿Paris,﻿Paris,﻿WI,,42.63363,-88.051473,,﻿Attended by Rev. Mich. Heiss,,﻿m_heiss_002,﻿Rev.,﻿Mich. Heiss,,,,,,,,1866,﻿,﻿,﻿Milwaukee,Milwaukee
﻿mil.wi.0166,﻿church,﻿St. John's,English,,,,﻿Grant County,﻿Grant County,﻿Patchgrove,﻿Patch Grove,﻿WI,,42.940289,-90.974463,,﻿Visited by Rev. D. McGinnity,,﻿d_mcginnity_001,﻿Rev.,﻿D. McGinnity,,,,,,,,1866,﻿,﻿,﻿Milwaukee,Milwaukee
﻿mil.wi.0167,﻿church,﻿St. Salvator's,English,,,,﻿Dane County,﻿Dane County,﻿Perry,﻿Perry,﻿WI,,42.916955,-89.385547,,﻿Visited by Rev. P. J. Voissen,,﻿p_j_voissen_001,﻿Rev.,﻿P. J. Voissen,,,,,,,,1866,﻿,﻿,﻿Milwaukee,Milwaukee
﻿mil.wi.0363,﻿church,﻿Assumption B.V.M.,English,,,,﻿Oconto County,,﻿Peshtigo,,﻿WI,,,,,,,﻿l_mazeaud_002,﻿Rev.,﻿L. Mazeaud,,,,,,,,1866,﻿,﻿,﻿Milwaukee,Milwaukee
﻿mil.wi.0168,﻿church,﻿SS. Peter and Paul's,English,,,,﻿Waukesha County,﻿Waukesha County,﻿Pewaukee,﻿Pewaukee,﻿WI,,43.065463,-88.205804,,﻿Attended by Rev. L. Mueller,,﻿l_mueller_001,﻿Rev.,﻿L. Mueller,,,,,,,,1866,﻿,﻿,﻿Milwaukee,Milwaukee
﻿lac.wi.0107,﻿church,﻿St. Columban's,English,,,,﻿Jackson County,,﻿Pine Hill,,﻿WI,,,,,﻿Attended by Rev. J. Casey,,﻿j_casey_001,﻿Rev.,﻿J. Casey,,,,,,,,1866,﻿,﻿,﻿Milwaukee,Milwaukee
﻿mil.wi.0170,﻿church,﻿St. Mary's,English,,,,﻿Grant County,﻿Grant County,﻿Platteville,﻿Platteville,﻿WI,,42.737178,-90.47859,,,,﻿ch_exel_002,﻿Rev.,﻿Ch. Exel,,,,,,,,1866,﻿,﻿,﻿Milwaukee,Milwaukee
﻿mil.wi.0171,﻿church,﻿St. John's,English,,,,﻿Sheboygan County,﻿Sheboygan County,﻿Plymouth,﻿Plymouth,﻿WI,,43.749426,-87.977756,,﻿Visited by Rev. M. Haider,,﻿m_haider_001,﻿Rev.,﻿M. Haider,,,,,,,,1866,﻿,﻿,﻿Milwaukee,Milwaukee
﻿gre.wi.0027,﻿church,﻿St. Mary's Immaculate Conception,English,,,,﻿Columbia County,﻿Columbia County,﻿Portage City,﻿Portage,﻿WI,,43.538915,-89.464551,,,,﻿p_f_pettit_001,﻿Rev.,﻿P. F. Pettit,,,,,,,,1866,﻿,﻿,﻿Milwaukee,Milwaukee
﻿mil.wi.0172,﻿church,﻿St. Mary's,English,,,,﻿Ozaukee County,﻿Ozaukee County,﻿Port Washington,﻿Port Washington,﻿WI,,43.391873,-87.868991,,,,﻿f_x_sailer_002,﻿Rev.,﻿X. F. Sailer,﻿O. Praem,,,,,,,1866,﻿,﻿,﻿Milwaukee,Milwaukee
﻿mil.wi.0173,﻿church,﻿St. Thomas',English,,,,﻿Grant County,﻿Grant County,﻿Potosi,﻿Potosi,﻿WI,,42.686562,-90.714447,,,,﻿h_j_albers_001,﻿Rev.,﻿H. J. Albers,,,,,,,,1866,﻿,﻿,﻿Milwaukee,Milwaukee
﻿mil.wi.0174,﻿church,﻿St. Andrews',﻿German,,,,﻿Grant County,﻿Grant County,﻿Potosi,﻿Potosi,﻿WI,,42.689439,-90.712071,,,,﻿a_rash_001,﻿Rev.,﻿A. Rash,,,,,,,,1866,﻿,﻿,﻿Milwaukee,Milwaukee
﻿mil.wi.0175,﻿church,﻿St. Michael's,English,,,,﻿Rock County,,﻿Pottertown,,﻿WI,,42.817871,-89.180321,,﻿Attended by Rev. Will. O'Connell,,﻿wil_oconnell_001,﻿Rev.,﻿Will. O'Connell,,,,,,,,1866,﻿,﻿,﻿Milwaukee,Milwaukee
﻿mil.wi.0364,﻿church,﻿St. Thomas',English,,,,﻿Winnebago County,,﻿Poygan,,﻿WI,,,,,﻿Visited by Rev. Th. Keenan,,﻿th_keenan_001,﻿Rev.,﻿Th. Keenan,,,,,,,,1866,﻿,﻿,﻿Milwaukee,Milwaukee
﻿mil.wi.0365,﻿church,﻿St. Joseph's,﻿Polish,,,,﻿Portage County,,﻿Prairie,,﻿WI,,,,,,,﻿bon_buezynski_001,﻿Rev.,﻿Bonavent. Buenzynski,,,,,,,,1866,﻿,﻿,﻿Milwaukee,Milwaukee
﻿mil.wi.0366,﻿church,﻿St. Martin's,English,,,,﻿Portage County,,﻿Prairie,,﻿WI,,,,,﻿Attended by Rev. L. Lux,,﻿l_lux_002,﻿Rev.,﻿L. Lux,,,,,,,,1866,﻿,﻿,﻿Milwaukee,Milwaukee
﻿lac.wi.0019,﻿church,﻿St. Gabriel's,English,,,,﻿Crawford County,﻿Crawford County,﻿Prairie du Chien,﻿Prairie du Chien,﻿WI,,43.058349,-91.146135,,,,﻿l_galtier_001,﻿Very Rev.,﻿L. Galtier,,,,,,,,1866,﻿,﻿,﻿Milwaukee,Milwaukee
﻿mil.wi.0367,﻿church,﻿Holy Martyrs of Gorcum,English,,,,﻿Brown County,,﻿Preble Town,,﻿WI,,,,,"﻿Attended by Rev. E. Daems, O.S.C.",,﻿e_daems_002,﻿Rev.,﻿E. Daems,﻿O.S.C.,,,,,,,1866,﻿,﻿,﻿Milwaukee,Milwaukee
﻿mil.wi.0176,﻿church,﻿St. Patrick's,English,,,,﻿Racine County,﻿Racine County,﻿Racine,﻿Racine,﻿WI,,42.734386,-87.787466,,,,﻿g_w_matthews_001,﻿Rev.,﻿G. W. Matthews,,,,,,,,1866,﻿,﻿,﻿Milwaukee,Milwaukee
﻿mil.wi.0177,﻿church,﻿St. Mary's,﻿German,,,,﻿Racine County,﻿Racine County,﻿Racine,﻿Racine,﻿WI,,42.724484,-87.78494,,,,﻿f_uhlemeier_001,﻿Rev.,﻿F. Uhlemeier,,,,,,,,1866,﻿,﻿,﻿Milwaukee,Milwaukee
﻿mil.wi.0368,﻿church,﻿St. Osilia's,English,,,,﻿Door County,,﻿Red River,,﻿WI,,,,,﻿Attended by Rev. Ph. Crud,,﻿ph_crud_001,﻿Rev.,﻿Ph. Crud,,,,,,,,1866,﻿,﻿,﻿Milwaukee,Milwaukee
﻿mil.wi.0178,﻿church,﻿St. Hubert's,English,,,,﻿Washington County,﻿Washington County,﻿Richfield,﻿Richfield,﻿WI,,43.232498,-88.215765,,﻿Attended by Rev. A. Faekler,,﻿j_gamber_001,﻿Rev.,﻿A. Faekler,,,,,,,,1866,﻿,﻿,﻿Milwaukee,Milwaukee
﻿mil.wi.0179,﻿church,﻿Holy Maternity,English,,,,﻿Washington County,﻿Washington County,﻿Richfield,﻿Richfield,﻿WI,,43.25622,-88.194365,,﻿Attended by Rev. A. Faekler,,﻿j_gamber_001,﻿Rev.,﻿A. Faekler,,,,,,,,1866,﻿,﻿,﻿Milwaukee,Milwaukee
﻿mil.wi.0180,﻿church,﻿St. Augustine's,English,,,,﻿Washington County,﻿Washington County,﻿Richfield,﻿Richfield,﻿WI,,43.219106,-88.226643,,﻿Attended by Rev. A. Faekler,,﻿j_gamber_001,﻿Rev.,﻿A. Faekler,,,,,,,,1866,﻿,﻿,﻿Milwaukee,Milwaukee
﻿mil.wi.0181,﻿church,﻿St. Joseph's,English,,,,﻿Jefferson County,﻿Dodge County,﻿Richwood,﻿Richwood,﻿WI,,43.241389,-88.783056,,,,﻿h_roche_001,﻿Rev.,﻿H. Roche,,,,,,,,1866,﻿,﻿,﻿Milwaukee,Milwaukee
﻿lac.wi.0108,﻿church,﻿St. Finnbarr's,English,,,,﻿Monroe County,,﻿Ridgeville,,﻿WI,,,,,﻿Attended by Rev. P. Casey,,﻿p_casey_001,﻿Rev.,﻿P. Casey,,,,,,,,1866,﻿,﻿,﻿Milwaukee,Milwaukee
﻿mil.wi.0182,﻿church,﻿St. Bridget's,English,,,,﻿Iowa County,﻿Iowa County,﻿Ridgeway,﻿Ridgeway,﻿WI,,42.997718,-89.995869,,﻿Attended by F. McGann,,﻿f_mcgann_001,﻿Rev.,﻿F. McGann,,,,,,,,1866,﻿,﻿,﻿Milwaukee,Milwaukee
﻿mil.wi.0183,﻿church,﻿St. Patrick's,English,,,,﻿Fond du Lac County,﻿Fond du Lac County,﻿Ripon,﻿Ripon,﻿WI,,43.784721,-88.446755,,,,﻿e_gray_001,﻿Rev.,﻿E. Gray,,,,,,,,1866,﻿,﻿,﻿Milwaukee,Milwaukee
﻿gre.wi.0029,﻿church,﻿St. Joseph's,English,,,,﻿Brown County,﻿Brown County,﻿Robinsonville,﻿Champion,﻿WI,,44.482213,-88.012871,,,,﻿ph_crud_001,﻿Rev.,﻿Ph. Crud,,,,,,,,1866,﻿,﻿,﻿Milwaukee,Milwaukee
﻿mil.wi.0369,﻿church,﻿St. Hubert's,English,,,,﻿Door County,,﻿Rosiere,,﻿WI,,,,,"﻿Attended by Rev. A. Daems, O.S.C.",,﻿e_daems_002,﻿Rev.,﻿A. Daems,﻿O.S.C.,,,,,,,1866,﻿,﻿,﻿Milwaukee,Milwaukee
﻿mil.wi.0184,﻿church,﻿St. Norbert's,English,,,,﻿Dane County,﻿Dane County,﻿Roxbury,﻿Roxbury,﻿WI,,43.250644,-89.677281,,,,﻿a_inama_001,﻿Rev.,﻿A. Inama,﻿O. Praem,,,,,,,1866,﻿,﻿,﻿Milwaukee,Milwaukee
﻿mil.wi.0187,﻿church,﻿St. Martin's,English,,,,﻿Dane County,﻿Dane County,﻿Springfield,﻿Springfield,﻿WI,,43.180678,-89.589689,,,,﻿j_maly_002,﻿Rev.,﻿J. Maly,,,,,,,,1866,﻿,﻿,﻿Milwaukee,Milwaukee
﻿mil.wi.0188,﻿church,﻿St. Peter's,English,,,,﻿Dane County,﻿Dane County,﻿Springfield,﻿Springfield,﻿WI,,43.139502,-89.540955,,,,﻿j_maly_002,﻿Rev.,﻿J. Maly,,,,,,,,1866,﻿,﻿,﻿Milwaukee,Milwaukee
﻿lac.wi.0021,﻿church,﻿St. Aloysius,English,,,,﻿Sauk County,﻿Sauk County,﻿Sauk City,﻿Sauk City,﻿WI,,43.28139,-89.725801,,,,﻿fra_etschmann_001,﻿Rev.,﻿F. Etschmann,,,,,,,,1866,﻿,﻿,﻿Milwaukee,Milwaukee
﻿mil.wi.0189,﻿church,"﻿St. Mary's, Immaculate Conception",English,,,,﻿Ozaukee County,﻿Ozaukee County,﻿Saukville,﻿Saukville,﻿WI,,43.380143,-87.94336,,,,﻿ch_shroudenback_001,﻿Rev.,﻿Ch. Shroudenback,,,,,,,,1866,﻿,﻿,﻿Milwaukee,Milwaukee
﻿mil.wi.0190,﻿church,﻿St. Finnbar's,English,,,,﻿Ozaukee County,﻿Ozaukee County,﻿Saukville,﻿Saukville,﻿WI,,43.441187,-88.000675,,﻿Attended from Newburgh,,,,,,,,,,,,1866,﻿,﻿,﻿Milwaukee,Milwaukee
﻿mil.wi.0191,﻿church,﻿St. Peter's,English,,,,﻿Washington County,﻿Washington County,﻿Shleisingerville,﻿Slinger,﻿WI,,43.333613,-88.286206,,﻿Attended by Rev. M. Weiss,,﻿m_weiss_001,﻿Rev.,﻿M. Weiss,,,,,,,,1866,﻿,﻿,﻿Milwaukee,Milwaukee
﻿mil.wi.0370,﻿church,﻿St. Peter's,English,,,,﻿Manitowoc County,﻿Manitowoc County,﻿Schleswig,,﻿WI,,,,,﻿Attended by Fathers of Calvary Convent,,,,,,,,,,,,1866,﻿,﻿,﻿Milwaukee,Milwaukee
﻿lac.wi.0110,﻿church,﻿St. Mark's,English,,,,﻿Crawford County,,﻿Seneca,,﻿WI,,,,,﻿Attended by Rev. P. Murphy,,﻿p_murphy_004,﻿Rev.,﻿P. Murphy,,,,,,,,1866,﻿,﻿,﻿Milwaukee,Milwaukee
﻿mil.wi.0193,﻿church,﻿St. Magdalene's,English,,,,﻿Sheboygan County,﻿Sheboygan County,﻿Sheboygan,﻿Sheboygan,﻿WI,,43.760482,-87.71347,,,,﻿m_haider_001,﻿Rev.,﻿M. Haider,,,,,,,,1866,﻿,﻿,﻿Milwaukee,Milwaukee
﻿mil.wi.0194,﻿church,﻿St. Mary's,English,,,,﻿Sheboygan County,﻿Sheboygan County,﻿Silver Creek,﻿Sherman,﻿WI,,43.600762,-87.992268,,﻿Attended by Rev. H. McMahon,,﻿h_mcmahon_001,﻿Rev.,﻿H. McMahon,,,,,,,,1866,﻿,﻿,﻿Milwaukee,Milwaukee
﻿mil.wi.0195,﻿church,﻿St. Dominic's,English,,,,﻿Grant County,﻿Grant County,﻿Sinsinawa,﻿Sinsinawa,﻿WI,,42.520811,-90.53856,,﻿Attended by the Dominican Fathers,,,,,,,,,,,,1866,﻿,﻿,﻿Milwaukee,Milwaukee
﻿mil.wi.0196,﻿church,﻿St. Matthew's,English,,,,﻿Lafayette County,﻿Lafayette County,﻿Shullsburgh,﻿Shullsburg,﻿WI,,42.574395,-90.230549,,,,﻿j_j_kinsella_001,﻿Rev.,﻿J. J. Kinsella,,,,,,,,1866,﻿,﻿,﻿Milwaukee,Milwaukee
﻿mil.wi.0371,﻿church,﻿St. Peter's,English,,,,﻿Outagamie County,,﻿Snydersville,,﻿WI,,,,,﻿Attended by Rev. A. J. Verberk,,﻿a_j_verberk_001,﻿Rev.,﻿A. J. Verberk,,,,,,,,1866,﻿,﻿,﻿Milwaukee,Milwaukee
﻿lac.wi.0111,﻿church,﻿St. Vincent de Paul's,English,,,,﻿St. Croix County,,﻿Sommerset,,﻿WI,,,,,﻿Attended by Rev. S. Seif,,﻿s_seif_001,﻿Rev.,﻿S. Seif,,,,,,,,1866,﻿,﻿,﻿Milwaukee,Milwaukee
﻿mil.wi.0197,﻿church,﻿Holy Mary of Help,English,,,,﻿Fond du Lac County,﻿Fond du Lac County,﻿Springvale,﻿Springvale,﻿WI,,43.764244,-88.691631,,﻿Visited by Rev. E. Gray,,﻿e_gray_001,﻿Rev.,﻿E. Gray,,,,,,,,1866,﻿,﻿,﻿Milwaukee,Milwaukee
﻿gre.wi.0031,﻿church,﻿St. Stephen's,English,,,,﻿Portage County,﻿Portage County,﻿Stevens Point,﻿Stevens Point,﻿WI,,44.527046,-89.553282,,,,﻿l_lux_002,﻿Rev.,﻿L. Lux,,,,,,,,1866,﻿,﻿,﻿Milwaukee,Milwaukee
﻿mil.wi.0372,﻿church,﻿St. Catherine's,English,,,,﻿Calumet County,,﻿Stockbridge,,﻿WI,,,,,﻿Visited by Rev. --- Dolan,,,﻿Rev.,﻿--- Dolan,,,,,,,,1866,﻿,﻿,﻿Milwaukee,Milwaukee
﻿mil.wi.0198,﻿church,﻿St. Joseph's,English,,,,﻿Dane County,﻿Dane County,﻿Sun Prairie,﻿Sun Prairie,﻿WI,,43.267928,-89.153749,,,,﻿max_de-becke_001,﻿Rev.,﻿Max De Becke,,,,,,,,1866,﻿,﻿,﻿Milwaukee,Milwaukee
﻿mil.wi.0199,﻿church,﻿Sacred Hearts of Jesus and Mary,English,,,,﻿Dane County,﻿Dane County,﻿Sun Prairie,﻿Sun Prairie,﻿WI,,43.186216,-89.210166,,,,﻿max_de-becke_001,﻿Rev.,﻿Max De Becke,,,,,,,,1866,﻿,﻿,﻿Milwaukee,Milwaukee
﻿mil.wi.0200,﻿church,﻿St. John the Baptist's,English,,,,﻿Fond du Lac County,﻿Fond du Lac County,﻿Taycheda,﻿Taycheeda,﻿WI,,43.808879,-88.395106,,,,﻿joh_welter_001,﻿Rev.,﻿John Welter,,,,,,,,1866,﻿,﻿,﻿Milwaukee,Milwaukee
﻿mil.wi.0202,﻿church,﻿St. Theresa's,English,,,,﻿Dodge County,﻿Dodge County,﻿Teresa,﻿Theresa,﻿WI,,43.518107,-88.453215,,,,﻿l_durst_001,﻿Rev.,﻿L. Durst,,,,,,,,1866,﻿,﻿,﻿Milwaukee,Milwaukee
﻿lac.wi.0022,﻿church,﻿St. Wenceslaus',﻿Polish,,,,﻿Trempeleau County,﻿Trempeleau County,﻿Trempeleau,﻿Trempeleau,﻿WI,,44.005519,-91.442088,,"﻿Visited occasionally by Rev. Flo. Zadziorski, O.M.C.",,﻿flo_zadziorski_001,﻿Rev.,﻿Flo. Zadziorski,﻿O.M.C.,,,,,,,1866,﻿,﻿,﻿Milwaukee,Milwaukee
﻿gre.wi.0032,﻿church,﻿St. Luke's,English,,,,﻿Manitowoc County,﻿Manitowoc County,﻿Two Rivers,﻿Two Rivers,﻿WI,,44.149952,-87.567108,,,,﻿j_stehle_001,﻿Rev.,﻿J. Stehle,,,,,,,,1866,﻿,﻿,﻿Milwaukee,Milwaukee
﻿lac.wi.0112,﻿church,﻿St. Theresa's,English,,,,﻿Juneau County,,﻿Union Centre,,﻿WI,,,,,﻿Attended by Rev. J. Casey,,﻿pet_lavin_002,﻿Rev.,﻿J. Casey,,,,,,,,1866,﻿,﻿,﻿Milwaukee,Milwaukee
﻿lac.wi.0113,﻿church,﻿St. James',English,,,,﻿Crawford County,,﻿Utica,,﻿WI,,,,,,,﻿p_murphy_004,﻿Rev.,﻿P. Murphy,,,,,,,,1866,﻿,﻿,﻿Milwaukee,Milwaukee
﻿mil.wi.0203,﻿church,﻿St. Simon's,English,,,,﻿Dane County,﻿Dane County,﻿Vermont,﻿Vermont,﻿WI,,43.077571,-89.794289,,﻿Attended by Rev. D. McGinnity,,﻿d_mcginnity_001,﻿Rev.,﻿D. McGinnity,,,,,,,,1866,﻿,﻿,﻿Milwaukee,Milwaukee
﻿mil.wi.0204,﻿church,﻿St. Margaret's,English,,,,﻿Dane County,﻿Dane County,﻿Vienna,﻿Vienna,﻿WI,,43.018607,-89.549763,,﻿Attended from Madison,,,,,,,,,,,,1866,﻿,﻿,﻿Milwaukee,Milwaukee
﻿mil.wi.0206,﻿church,﻿St. Thomas Aquinas,English,,,,﻿Racine County,﻿Racine County,﻿Waterford,﻿Waterford,﻿WI,,42.760776,-88.212041,,,,﻿j_conrad_001,﻿Rev.,﻿J. Conrad,,,,,,,,1866,﻿,﻿,﻿Milwaukee,Milwaukee
﻿mil.wi.0208,﻿church,﻿St. Bernard's,English,,,,﻿Jefferson County,﻿Jefferson County,﻿Watertown,﻿Watertown,﻿WI,,43.193918,-88.729292,,,,﻿dr_j_norris_001,﻿Rev.,﻿Dr. J. W. Norris,,,,,,,,1866,﻿,﻿,﻿Milwaukee,Milwaukee
﻿mil.wi.0208,﻿church,﻿St. Bernard's,English,,,,﻿Jefferson County,﻿Jefferson County,﻿Watertown,﻿Watertown,﻿WI,,43.193918,-88.729292,,,,,﻿Rev.,﻿A. O'Connor,,﻿Assistant,,,,,,1866,﻿,﻿,﻿Milwaukee,Milwaukee
﻿mil.wi.0209,﻿church,﻿St. Henry's,﻿German,,,,﻿Jefferson County,﻿Jefferson County,﻿Watertown,﻿Watertown,﻿WI,,43.196569,-88.720928,,,,﻿fab_kermadinger_001,﻿Rev.,﻿Fab. Kermadinger,﻿O.M.C.,,,,,,,1866,﻿,﻿,﻿Milwaukee,Milwaukee
﻿mil.wi.0210,﻿church,﻿St. Joseph's,English,,,,﻿Dodge County,﻿Dodge County,﻿Waupun,﻿Waupun,﻿WI,,43.633481,-88.737722,,﻿Visited by Rev. W. Dougherty,,﻿w_dougherty_001,﻿Rev.,﻿W. Dougherty,,,,,,,,1866,﻿,﻿,﻿Milwaukee,Milwaukee
﻿mil.wi.0211,﻿church,﻿St. Joseph's,English,,,,﻿Waukesha County,﻿Waukesha County,﻿Waukesha,﻿Waukesha,﻿WI,,43.011854,-88.226756,,,,﻿w_vahey_001,﻿Rev.,﻿W. Vahey,,,,,,,,1866,﻿,﻿,﻿Milwaukee,Milwaukee
﻿mil.wi.0212,﻿church,﻿Holy Angels,English,,,,﻿Washington County,﻿Washington County,﻿West Bend,﻿West Bend,﻿WI,,43.423965,-88.186686,,,,﻿j_reindl_001,﻿Rev.,﻿J. Reindl,,,,,,,,1866,﻿,﻿,﻿Milwaukee,Milwaukee
﻿mil.wi.0213,﻿church,﻿St. Mathias',English,,,,﻿Washington County,﻿Washington County,﻿West Bend,﻿West Bend,﻿WI,,43.420725,-88.271444,,﻿Visited by M. Weiss,,﻿m_weiss_001,﻿Rev.,﻿M. Weiss,,,,,,,,1866,﻿,﻿,﻿Milwaukee,Milwaukee
﻿lac.wi.0114,﻿church,﻿St. Alphonsus',English,,,,﻿Sauk County,,﻿Westfield,,﻿WI,,,,,﻿Visited by Rev. Franc. Etschmann,,﻿fra_etschmann_001,﻿Rev.,﻿Franc. Etschmann,,,,,,,,1866,﻿,﻿,﻿Milwaukee,Milwaukee
﻿mil.wi.0216,﻿church,﻿St. Patrick's,English,,,,﻿Iowa County,﻿Iowa County,﻿Walwick,﻿Waldwick,﻿WI,,42.825555,-90.039847,,﻿Attended by Rev. F. McGann,,﻿f_mcgann_001,﻿Rev.,﻿F. McGann,,,,,,,,1866,﻿,﻿,﻿Milwaukee,Milwaukee
﻿mil.wi.0217,﻿church,﻿St. Alphonsus',English,,,,﻿Kenosha County,﻿Kenosha County,﻿Wheatland,﻿Wheatland,﻿WI,,42.580476,-88.226719,,,,﻿j_h_korphage_001,﻿Rev.,﻿J. H. Korphage,,,,,,,,1866,﻿,﻿,﻿Milwaukee,Milwaukee
﻿mil.wi.0218,﻿church,﻿St. Patrick's,English,,,,﻿Walworth County,﻿Walworth County,﻿Whitewater,﻿Whitewater,﻿WI,,42.833958,-88.753497,,,,﻿r_dunphy_001,﻿Rev.,﻿R. Dumphy,,,,,,,,1866,﻿,﻿,﻿Milwaukee,Milwaukee
﻿mil.wi.0219,﻿church,﻿Holy Assumption,English,,,,﻿Lafayette County,﻿Lafayette County,﻿Willow Springs,﻿Willow Springs,﻿WI,,42.748242,-90.131799,,﻿Attended by Rev. A. David,,﻿e_mcginnity_001,﻿Rev.,﻿A. David,,,,,,,,1866,﻿,﻿,﻿Milwaukee,Milwaukee
﻿mil.wi.0220,﻿church,﻿Holy Name of Jesus,English,,,,﻿Kenosha County,﻿Kenosha County,﻿Wilmot,﻿Wilmont,﻿WI,,42.513043,-88.182513,,﻿Attended by Rev. J. Korphage,,﻿j_korphage_001,﻿Rev.,﻿J. Korphage,,,,,,,,1866,﻿,﻿,﻿Milwaukee,Milwaukee
﻿mil.wi.0221,﻿church,﻿St. George's,English,,,,﻿Sheboygan County,﻿Sheboygan County,﻿Wilson,﻿Wilson,﻿WI,,43.669865,-87.799943,,,,﻿m_seibold_001,﻿Rev.,﻿M. Seibold,,,,,,,,1866,﻿,﻿,﻿Milwaukee,Milwaukee
﻿mil.wi.0376,﻿church,﻿St. Boniface's,English,,,,﻿Buffalo County,,﻿Woumadee,,﻿WI,,,,,﻿Attended by Rev. M. Joerger,,,﻿Rev.,﻿M. Joerger,,,,,,,,1866,﻿,﻿,﻿Milwaukee,Milwaukee
﻿mil.wi.0375,﻿church,﻿St. John the Baptist's,English,,,,﻿Calumet County,,﻿Woodville,,﻿WI,,,,,"﻿Visited by Rev. Bonavent. De Goy, O.M.C.",,﻿bon_de-goy_001,﻿Rev.,﻿Bonavent De Goy,﻿O.M.C.,,,,,,,1866,﻿,﻿,﻿Milwaukee,Milwaukee
﻿mil.wi.0223,﻿church,﻿St. Augustine's,English,,,,﻿Columbia County,﻿Columbia County,﻿Wyosina,﻿Wyocena,﻿WI,,43.495817,-89.308451,,,,﻿e_mcguirk_001,﻿Rev.,﻿E. McGuirk,,,,,,,,1866,﻿,﻿,﻿Milwaukee,Milwaukee
﻿lac.wi.0115,﻿station,not recorded,English,,,,﻿Adams County,,﻿Neery,,﻿WI,,,,,,,,,,,,,,,,,1866,﻿,﻿,﻿Milwaukee,Milwaukee
﻿lac.wi.0116,﻿station,not recorded,English,,,,﻿Adams County,,﻿Prairie,,﻿WI,,,,,,,,,,,,,,,,,1866,﻿,﻿,﻿Milwaukee,Milwaukee
﻿lac.wi.0117,﻿station,not recorded,English,,,,﻿Adams County,,﻿Quincy,,﻿WI,,,,,,,,,,,,,,,,,1866,﻿,﻿,﻿Milwaukee,Milwaukee
﻿lac.wi.0118,﻿station,not recorded,English,,,,﻿Adams County,,﻿Wardelah,,﻿WI,,,,,,,,,,,,,,,,,1866,﻿,﻿,﻿Milwaukee,Milwaukee
﻿lac.wi.0119,﻿station,not recorded,English,,,,﻿Bad Axe County,,﻿Morrison,,﻿WI,,,,,,,,,,,,,,,,,1866,﻿,﻿,﻿Milwaukee,Milwaukee
﻿lac.wi.0120,﻿station,not recorded,English,,,,﻿Bad Axe County,,﻿Wrightstown,,﻿WI,,,,,,,,,,,,,,,,,1866,﻿,﻿,﻿Milwaukee,Milwaukee
﻿mil.wi.0377,﻿station,not recorded,English,,,,﻿Brown County,,﻿Bad Axe,,﻿WI,,,,,,,,,,,,,,,,,1866,﻿,﻿,﻿Milwaukee,Milwaukee
﻿mil.wi.0378,﻿station,not recorded,English,,,,﻿Brown County,,﻿De Bellau,,﻿WI,,,,,,,,,,,,,,,,,1866,﻿,﻿,﻿Milwaukee,Milwaukee
﻿mil.wi.0379,﻿station,not recorded,English,,,,﻿Brown County,,﻿Pine River,,﻿WI,,,,,,,,,,,,,,,,,1866,﻿,﻿,﻿Milwaukee,Milwaukee
﻿mil.wi.0349,﻿station,not recorded,English,,,,﻿Brown County,,﻿Humbolt,,﻿WI,,44.500039,-87.822095,,,,,,,,,,,,,,1866,﻿,﻿,﻿Milwaukee,Milwaukee
﻿lac.wi.0025,﻿station,not recorded,English,,,,﻿Buffalo County,,﻿Buffalo City,﻿Buffalo City,﻿WI,,44.230564,-91.863468,,,,,,,,,,,,,,1866,﻿,﻿,﻿Milwaukee,Milwaukee
﻿lac.wi.0121,﻿station,not recorded,English,,,,﻿Buffalo County,,﻿Nelson,,﻿WI,,,,,,,,,,,,,,,,,1866,﻿,﻿,﻿Milwaukee,Milwaukee
﻿lac.wi.0122,﻿station,not recorded,English,,,,﻿Buffalo County,,﻿Little Waumadee,,﻿WI,,,,,,,,,,,,,,,,,1866,﻿,﻿,﻿Milwaukee,Milwaukee
﻿lac.wi.0123,﻿station,not recorded,English,,,,﻿Buffalo County,,﻿Mandara,,﻿WI,,,,,,,,,,,,,,,,,1866,﻿,﻿,﻿Milwaukee,Milwaukee
﻿lac.wi.0024,﻿station,not recorded,English,,,,﻿Buffalo County,,﻿Alma,,﻿WI,,44.321587,-91.914457,,,,,,,,,,,,,,1866,﻿,﻿,﻿Milwaukee,Milwaukee
﻿mil.wi.0029,﻿station,not recorded,English,,,,﻿Calumet County,,﻿Brothertown,,﻿WI,,43.978368,-88.275314,,,,,,,,,,,,,,1866,﻿,﻿,﻿Milwaukee,Milwaukee
﻿mil.wi.0345,﻿station,not recorded,English,,,,﻿Calumet County,,﻿Harrison,,﻿WI,,,,,,,,,,,,,,,,,1866,﻿,﻿,﻿Milwaukee,Milwaukee
﻿mil.wi.0044,﻿station,not recorded,English,,,,﻿Calumet County,,﻿Charleston,,﻿WI,,44.023369,-88.109612,,,,,,,,,,,,,,1866,﻿,﻿,﻿Milwaukee,Milwaukee
﻿lac.wi.0026,﻿station,not recorded,English,,,,﻿Chippewa County,,﻿Brush Prairie,﻿Bloomer,﻿WI,,45.120908,-91.421051,,,,,,,,,,,,,,1866,﻿,﻿,﻿Milwaukee,Milwaukee
﻿lac.wi.0124,﻿station,not recorded,English,,,,﻿Chippewa County,,﻿Courtes Oreilles,,﻿WI,,,,,,,,,,,,,,,,,1866,﻿,﻿,﻿Milwaukee,Milwaukee
﻿lac.wi.0063,﻿station,not recorded,English,,,,﻿Chippewa County,,﻿Flambeau,﻿Holocombe,﻿WI,,45.262041,-91.16075,,,,,,,,,,,,,,1866,﻿,﻿,﻿Milwaukee,Milwaukee
﻿lac.wi.0125,﻿station,not recorded,English,,,,﻿Chippewa County,,﻿Springfield,,﻿WI,,,,,,,,,,,,,,,,,1866,﻿,﻿,﻿Milwaukee,Milwaukee
﻿lac.wi.0126,﻿station,not recorded,English,,,,﻿Clarke County,,﻿Neilsville,,﻿WI,,,,,,,,,,,,,,,,,1866,﻿,﻿,﻿Milwaukee,Milwaukee
﻿mil.wi.0224,﻿station,not recorded,English,,,,﻿Columbia County,﻿Columbia County,﻿Marcello,﻿Marcellon,﻿WI,,43.568594,-89.265672,,,,,,,,,,,,,,1866,﻿,﻿,﻿Milwaukee,Milwaukee
﻿mil.wi.0163,﻿station,not recorded,English,,,,﻿Columbia County,﻿Columbia County,﻿Otsego,﻿Otsego,﻿WI,,43.40221,-89.166225,,,,,,,,,,,,,,1866,﻿,﻿,﻿Milwaukee,Milwaukee
﻿mil.wi.0226,﻿station,not recorded,English,,,,﻿Columbia County,﻿Columbia County,﻿Prairie,﻿Prairie,﻿WI,,43.404663,-89.322695,,,,,,,,,,,,,,1866,﻿,﻿,﻿Milwaukee,Milwaukee
﻿lac.wi.0127,﻿station,not recorded,English,,,,﻿Crawford County,,﻿Poydtown Bluffs,,﻿WI,,,,,,,,,,,,,,,,,1866,﻿,﻿,﻿Milwaukee,Milwaukee
﻿mil.wi.0227,﻿station,not recorded,English,,,,﻿Dane County,﻿Dane County,﻿Cottage Grove,﻿Cottage Grove,﻿WI,,43.076108,-89.199559,,,,,,,,,,,,,,1866,﻿,﻿,﻿Milwaukee,Milwaukee
﻿mil.wi.0214,﻿station,not recorded,English,,,,﻿Dane County,﻿Dane County,﻿Westport,﻿Westport,﻿WI,,43.018607,-89.549763,,,,,,,,,,,,,,1866,﻿,﻿,﻿Milwaukee,Milwaukee
﻿mil.wi.0228,﻿station,not recorded,English,,,,﻿Dane County,﻿Dane County,﻿Dane,﻿Dane,﻿WI,,43.250547,-89.501509,,,,,,,,,,,,,,1866,﻿,﻿,﻿Milwaukee,Milwaukee
﻿mil.wi.0229,﻿station,not recorded,English,,,,﻿Dodge County,﻿Dodge County,﻿Lebanon,﻿Lebanon,﻿WI,,43.255277,-88.626768,,,,,,,,,,,,,,1866,﻿,﻿,﻿Milwaukee,Milwaukee
﻿mil.wi.0230,﻿station,not recorded,English,,,,﻿Dodge County,﻿Dodge County,﻿Lamira,﻿Lamira,﻿WI,,43.591382,-88.443713,,,,,,,,,,,,,,1866,﻿,﻿,﻿Milwaukee,Milwaukee
﻿mil.wi.0231,﻿station,not recorded,English,,,,﻿Dodge County,﻿Dodge County,﻿Iron Ridge,﻿Iron Ridge,﻿WI,,43.39972,-88.532601,,,,,,,,,,,,,,1866,﻿,﻿,﻿Milwaukee,Milwaukee
﻿mil.wi.0380,﻿station,not recorded,English,,,,﻿Door County,,﻿Harbor Island,,﻿WI,,,,,,,,,,,,,,,,,1866,﻿,﻿,﻿Milwaukee,Milwaukee
﻿mil.wi.0381,﻿station,not recorded,English,,,,﻿Door County,,﻿Leopold Village,,﻿WI,,,,,,,,,,,,,,,,,1866,﻿,﻿,﻿Milwaukee,Milwaukee
﻿gre.wi.0064,﻿station,not recorded,English,,,,﻿Door County,,﻿New-Brussels,﻿Brussels,﻿WI,,44.74844,-87.621873,,,,,,,,,,,,,,1866,﻿,﻿,﻿Milwaukee,Milwaukee
﻿mil.wi.0382,﻿station,not recorded,English,,,,﻿Door County,,﻿Potowatamie,,﻿WI,,,,,,,,,,,,,,,,,1866,﻿,﻿,﻿Milwaukee,Milwaukee
﻿mil.wi.0383,﻿station,not recorded,English,,,,﻿Door County,,﻿Big Sturgeon Bay,,﻿WI,,,,,,,,,,,,,,,,,1866,﻿,﻿,﻿Milwaukee,Milwaukee
﻿mil.wi.0384,﻿station,not recorded,English,,,,﻿Door County,,﻿Little Sturgeon Bay,,﻿WI,,,,,,,,,,,,,,,,,1866,﻿,﻿,﻿Milwaukee,Milwaukee
﻿mil.wi.0385,﻿station,not recorded,English,,,,﻿Door County,,﻿Washington Harbor,,﻿WI,,,,,,,,,,,,,,,,,1866,﻿,﻿,﻿Milwaukee,Milwaukee
﻿lac.wi.0067,﻿station,not recorded,English,,,,﻿Douglas County,,﻿Superior City,,﻿WI,,46.703208,-92.046862,,,,,,,,,,,,,,1866,﻿,﻿,﻿Milwaukee,Milwaukee
﻿mil.wi.0386,﻿station,not recorded,English,,,,﻿Douglas County,,﻿Fond du Lac,,﻿WI,,,,,,,,,,,,,,,,,1866,﻿,﻿,﻿Milwaukee,Milwaukee
﻿lac.wi.0128,﻿station,not recorded,English,,,,﻿Dunn County,,﻿Fall City,,﻿WI,,,,,,,,,,,,,,,,,1866,﻿,﻿,﻿Milwaukee,Milwaukee
﻿lac.wi.0031,﻿station,not recorded,English,,,,﻿Eau Clair County,,﻿Adams' Settlement,,﻿WI,,44.813079,-91.605541,,,,,,,,,,,,,,1866,﻿,﻿,﻿Milwaukee,Milwaukee
﻿lac.wi.0129,﻿station,not recorded,English,,,,﻿Eau Clair County,,﻿Pleasant Valley,,﻿WI,,,,,,,,,,,,,,,,,1866,﻿,﻿,﻿Milwaukee,Milwaukee
﻿mil.wi.0387,﻿station,not recorded,English,,,,﻿Fond du Lac County,,﻿Eldora,,﻿WI,,,,,,,,,,,,,,,,,1866,﻿,﻿,﻿Milwaukee,Milwaukee
﻿mil.wi.0452,﻿station,not recorded,English,,,,﻿Fond du Lac County,,﻿Newcastle,,﻿WI,,,,,,,,,,,,,,,,,1866,﻿,﻿,﻿Milwaukee,Milwaukee
﻿mil.wi.0233,﻿station,not recorded,English,,,,﻿Fond du Lac County,﻿Fond du Lac County,﻿Rosendale,﻿Rosendale,﻿WI,,43.807763,-88.674832,,,,,,,,,,,,,,1866,﻿,﻿,﻿Milwaukee,Milwaukee
﻿mil.wi.0201,﻿station,not recorded,English,,,,﻿Fond du Lac County,,﻿Taycheeda,,﻿WI,,43.833542,-88.341891,,,,,,,,,,,,,,1866,﻿,﻿,﻿Milwaukee,Milwaukee
﻿mil.wi.0388,﻿station,not recorded,English,,,,﻿Fond du Lac County,,﻿Walkosten,,﻿WI,,,,,,,,,,,,,,,,,1866,﻿,﻿,﻿Milwaukee,Milwaukee
﻿mil.wi.0236,﻿station,not recorded,English,,,,﻿Grant County,﻿Grant County,﻿Beetown,﻿Beetown,﻿WI,,42.794991,-90.885405,,,,,,,,,,,,,,1866,﻿,﻿,﻿Milwaukee,Milwaukee
﻿mil.wi.0237,﻿station,not recorded,English,,,,﻿Grant County,﻿Grant County,﻿Boscobel,﻿Boscobel,﻿WI,,43.134429,-90.705404,,,,,,,,,,,,,,1866,﻿,﻿,﻿Milwaukee,Milwaukee
﻿mil.wi.0238,﻿station,not recorded,English,,,,﻿Grant County,﻿Grant County,﻿Liberty,﻿Liberty,﻿WI,,42.881601,-90.620416,,,,,,,,,,,,,,1866,﻿,﻿,﻿Milwaukee,Milwaukee
﻿mil.wi.0239,﻿station,not recorded,English,,,,﻿Grant County,﻿Grant County,﻿Waterloo,﻿Waterloo,﻿WI,,42.724027,-90.848452,,,,,,,,,,,,,,1866,﻿,﻿,﻿Milwaukee,Milwaukee
﻿mil.wi.0389,﻿station,not recorded,English,,,,﻿Green County,,﻿Adams,,﻿WI,,,,,,,,,,,,,,,,,1866,﻿,﻿,﻿Milwaukee,Milwaukee
﻿mil.wi.0390,﻿station,not recorded,English,,,,﻿Green County,,﻿Broad Head,,﻿WI,,,,,,,,,,,,,,,,,1866,﻿,﻿,﻿Milwaukee,Milwaukee
﻿mil.wi.0391,﻿station,not recorded,English,,,,﻿Green County,,﻿New-Glanes,,﻿WI,,,,,,,,,,,,,,,,,1866,﻿,﻿,﻿Milwaukee,Milwaukee
﻿mil.wi.0241,﻿station,not recorded,English,,,,﻿Iowa County,﻿Iowa County,﻿Arina,﻿Arena,﻿WI,,43.165548,-89.912901,,,,,,,,,,,,,,1866,﻿,﻿,﻿Milwaukee,Milwaukee
﻿mil.wi.0242,﻿station,not recorded,English,,,,﻿Iowa County,﻿Iowa County,﻿Avoca,﻿Avoca,﻿WI,,43.181933,-90.324569,,,,,,,,,,,,,,1866,﻿,﻿,﻿Milwaukee,Milwaukee
﻿mil.wi.0392,﻿station,not recorded,English,,,,﻿Iowa County,,﻿Dodgeville,,﻿WI,,,,,,,,,,,,,,,,,1866,﻿,﻿,﻿Milwaukee,Milwaukee
﻿lac.wi.0066,﻿station,not recorded,English,,,,﻿Jackson County,,﻿Black River Falls,﻿Black River Falls,﻿WI,,44.294791,-90.85243,,,,,,,,,,,,,,1866,﻿,﻿,﻿Milwaukee,Milwaukee
﻿lac.wi.0130,﻿station,not recorded,English,,,,﻿Jackson County,,﻿Garden Valley,,﻿WI,,,,,,,,,,,,,,,,,1866,﻿,﻿,﻿Milwaukee,Milwaukee
﻿mil.wi.0243,﻿station,not recorded,English,,,,﻿Jefferson County,﻿Jefferson County,﻿Fort Atkinson,﻿Fort Atkinson,﻿WI,,42.928894,-88.837051,,,,,,,,,,,,,,1866,﻿,﻿,﻿Milwaukee,Milwaukee
﻿mil.wi.0244,﻿station,not recorded,English,,,,﻿Jefferson County,,﻿Pearlunawee,,﻿WI,,43.089927,-88.710896,,,,,,,,,,,,,,1866,﻿,﻿,﻿Milwaukee,Milwaukee
﻿mil.wi.0393,﻿station,not recorded,English,,,,﻿Juneau County,,﻿Germantown,,﻿WI,,,,,,,,,,,,,,,,,1866,﻿,﻿,﻿Milwaukee,Milwaukee
﻿mil.wi.0394,﻿station,not recorded,English,,,,﻿Juneau County,,﻿Vecedah,,﻿WI,,,,,,,,,,,,,,,,,1866,﻿,﻿,﻿Milwaukee,Milwaukee
﻿mil.wi.0032,﻿station,not recorded,English,,,,﻿Kenosha County,,﻿Bristol,,﻿WI,,42.558751,-88.050448,,,,,,,,,,,,,,1866,﻿,﻿,﻿Milwaukee,Milwaukee
﻿mil.wi.0445,﻿station,not recorded,English,,,,﻿Kenosha County,,﻿Dover,,﻿WI,,,,,,,,,,,,,,,,,1866,﻿,﻿,﻿Milwaukee,Milwaukee
﻿mil.wi.0395,﻿station,not recorded,English,,,,﻿Kewaunee County,,﻿Deykesville,,﻿WI,,,,,,,,,,,,,,,,,1866,﻿,﻿,﻿Milwaukee,Milwaukee
﻿gre.wi.0085,﻿station,not recorded,English,,,,﻿Kewaunee County,,﻿Red River,,﻿WI,,,,,,,,,,,,,,,,,1866,﻿,﻿,﻿Milwaukee,Milwaukee
﻿mil.wi.0396,﻿station,not recorded,English,,,,﻿Kewaunee County,,﻿Pierce,,﻿WI,,,,,,,,,,,,,,,,,1866,﻿,﻿,﻿Milwaukee,Milwaukee
﻿gre.wi.0061,﻿station,not recorded,English,,,,﻿Kewaunee County,,﻿Montpelier,﻿Montpelier,﻿WI,,44.455786,-87.734451,,,,,,,,,,,,,,1866,﻿,﻿,﻿Milwaukee,Milwaukee
﻿lac.wi.0069,﻿station,not recorded,English,,,,﻿La Crosse County,,﻿Broswickvalley,﻿Stoddard,﻿WI,,43.728263,-91.151084,,,,,,,,,,,,,,1866,﻿,﻿,﻿Milwaukee,Milwaukee
﻿lac.wi.0131,﻿station,not recorded,English,,,,﻿La Crosse County,,﻿Chipmunk,,﻿WI,,,,,,,,,,,,,,,,,1866,﻿,﻿,﻿Milwaukee,Milwaukee
﻿lac.wi.0132,﻿station,not recorded,English,,,,﻿La Crosse County,,﻿Cooley,,﻿WI,,,,,,,,,,,,,,,,,1866,﻿,﻿,﻿Milwaukee,Milwaukee
﻿lac.wi.0133,﻿station,not recorded,English,,,,﻿La Point County,,﻿Bad River,,﻿WI,,,,,,,,,,,,,,,,,1866,﻿,﻿,﻿Milwaukee,Milwaukee
﻿mil.wi.0246,﻿station,not recorded,English,,,,﻿Lafayette County,﻿Lafayette County,﻿Gratiot,﻿Gratiot,﻿WI,,42.578894,-90.022624,,,,,,,,,,,,,,1866,﻿,﻿,﻿Milwaukee,Milwaukee
﻿mil.wi.0446,﻿station,not recorded,English,,,,﻿Lafayette County,,﻿Wiota,,﻿WI,,,,,,,,,,,,,,,,,1866,﻿,﻿,﻿Milwaukee,Milwaukee
﻿mil.wi.0247,﻿station,not recorded,English,,,,﻿Lafayette County,﻿Lafayette County,﻿Yellow Stone,﻿Yellowstone,﻿WI,,42.79833,-89.97028,,,,,,,,,,,,,,1866,﻿,﻿,﻿Milwaukee,Milwaukee
﻿lac.wi.0134,﻿station,not recorded,English,,,,﻿Marathon County,,﻿Knowlton,,﻿WI,,,,,,,,,,,,,,,,,1866,﻿,﻿,﻿Milwaukee,Milwaukee
﻿lac.wi.0135,﻿station,not recorded,English,,,,﻿Marathon County,,﻿Mosinee,,﻿WI,,,,,,,,,,,,,,,,,1866,﻿,﻿,﻿Milwaukee,Milwaukee
﻿mil.wi.0447,﻿station,not recorded,English,,,,﻿Marathon County,,﻿Wausau,,﻿WI,,,,,,,,,,,,,,,,,1866,﻿,﻿,﻿Milwaukee,Milwaukee
﻿mil.wi.0397,﻿station,not recorded,English,,,,﻿Marquette County,,﻿Kingston,,﻿WI,,,,,,,,,,,,,,,,,1866,﻿,﻿,﻿Milwaukee,Milwaukee
﻿mil.wi.0398,﻿station,not recorded,English,,,,﻿Marquette County,,﻿Marquette,,﻿WI,,,,,,,,,,,,,,,,,1866,﻿,﻿,﻿Milwaukee,Milwaukee
﻿lac.wi.0109,﻿station,not recorded,English,,,,﻿Monroe County,,﻿Sparta,,﻿WI,,,,,,,,,,,,,,,,,1866,﻿,﻿,﻿Milwaukee,Milwaukee
﻿lac.wi.0039,﻿station,not recorded,English,,,,﻿Monroe County,,﻿Tomah,﻿Tomah,﻿WI,,43.979703,-90.507634,,,,,,,,,,,,,,1866,﻿,﻿,﻿Milwaukee,Milwaukee
﻿lac.wi.0070,﻿station,not recorded,English,,,,﻿Monroe County,,﻿Tunnel City,﻿Tunnel City,﻿WI,,44.00656,-90.566051,,,,,,,,,,,,,,1866,﻿,﻿,﻿Milwaukee,Milwaukee
﻿gre.wi.0063,﻿station,not recorded,English,,,,﻿Oconto County,,﻿Menomenee,,﻿WI,,44.882285,-88.630926,,,,,,,,,,,,,,1866,﻿,﻿,﻿Milwaukee,Milwaukee
﻿mil.wi.0399,﻿station,not recorded,English,,,,﻿Oconto County,,﻿Pensaukee,,﻿WI,,,,,,,,,,,,,,,,,1866,﻿,﻿,﻿Milwaukee,Milwaukee
﻿mil.wi.0400,﻿station,not recorded,English,,,,﻿Oconto County,,﻿Stiles,,﻿WI,,,,,,,,,,,,,,,,,1866,﻿,﻿,﻿Milwaukee,Milwaukee
﻿mil.wi.0402,﻿station,not recorded,English,,,,﻿Outagamie County,,﻿Ellington,,﻿WI,,,,,,,,,,,,,,,,,1866,﻿,﻿,﻿Milwaukee,Milwaukee
﻿mil.wi.0403,﻿station,not recorded,English,,,,﻿Outagamie County,,﻿Greenville,,﻿WI,,,,,,,,,,,,,,,,,1866,﻿,﻿,﻿Milwaukee,Milwaukee
﻿mil.wi.0404,﻿station,not recorded,English,,,,﻿Outagamie County,,﻿New-Lebanon,,﻿WI,,,,,,,,,,,,,,,,,1866,﻿,﻿,﻿Milwaukee,Milwaukee
﻿mil.wi.0405,﻿station,not recorded,English,,,,﻿Outagamie County,,﻿Stevensville,,﻿WI,,,,,,,,,,,,,,,,,1866,﻿,﻿,﻿Milwaukee,Milwaukee
﻿lac.wi.0071,﻿station,not recorded,English,,,,﻿Pepin County,,﻿Bear Creek,﻿Durand,﻿WI,,44.640859,-91.935671,,,,,,,,,,,,,,1866,﻿,﻿,﻿Milwaukee,Milwaukee
﻿lac.wi.0041,﻿station,not recorded,English,,,,﻿Pepin County,,﻿Durand,﻿Durand,﻿WI,,44.626354,-91.965726,,,,,,,,,,,,,,1866,﻿,﻿,﻿Milwaukee,Milwaukee
﻿lac.wi.0072,﻿station,not recorded,English,,,,﻿Pepin County,,﻿Pepin,﻿Pepin,﻿WI,,44.442998,-92.14894,,,,,,,,,,,,,,1866,﻿,﻿,﻿Milwaukee,Milwaukee
﻿lac.wi.0136,﻿station,not recorded,English,,,,﻿Pierce County,,﻿Martell,,﻿WI,,,,,,,,,,,,,,,,,1866,﻿,﻿,﻿Milwaukee,Milwaukee
﻿lac.wi.0044,﻿station,not recorded,English,,,,﻿Pierce County,,﻿Perrytown,,﻿WI,,44.589194,-92.485676,,,,,,,,,,,,,,1866,﻿,﻿,﻿Milwaukee,Milwaukee
﻿lac.wi.0043,﻿station,not recorded,English,,,,﻿Pierce County,,﻿Prescott,﻿Prescott,﻿WI,,44.748857,-92.802147,,,,,,,,,,,,,,1866,﻿,﻿,﻿Milwaukee,Milwaukee
﻿mil.wi.0406,﻿station,not recorded,English,,,,﻿Polk County,,﻿Balsom Lake,,﻿WI,,,,,,,,,,,,,,,,,1866,﻿,﻿,﻿Milwaukee,Milwaukee
﻿mil.wi.0407,﻿station,not recorded,English,,,,﻿Polk County,,﻿Eagle River,,﻿WI,,,,,,,,,,,,,,,,,1866,﻿,﻿,﻿Milwaukee,Milwaukee
﻿mil.wi.0408,﻿station,not recorded,English,,,,﻿Polk County,,﻿Portland,,﻿WI,,,,,,,,,,,,,,,,,1866,﻿,﻿,﻿Milwaukee,Milwaukee
﻿mil.wi.0409,﻿station,not recorded,English,,,,﻿Polk County,,﻿St. Croix Falls,,﻿WI,,,,,,,,,,,,,,,,,1866,﻿,﻿,﻿Milwaukee,Milwaukee
﻿mil.wi.0410,﻿station,not recorded,English,,,,﻿Polk County,,﻿Osceolo,,﻿WI,,,,,,,,,,,,,,,,,1866,﻿,﻿,﻿Milwaukee,Milwaukee
﻿mil.wi.0411,﻿station,not recorded,English,,,,﻿Polk County,,﻿Farmington,,﻿WI,,,,,,,,,,,,,,,,,1866,﻿,﻿,﻿Milwaukee,Milwaukee
﻿mil.wi.0327,﻿station,not recorded,English,,,,﻿Portage County,,﻿Buena Vista,,﻿WI,,,,,,,,,,,,,,,,,1866,﻿,﻿,﻿Milwaukee,Milwaukee
﻿mil.wi.0412,﻿station,not recorded,English,,,,﻿Portage County,,﻿Du Pays Point,,﻿WI,,,,,,,,,,,,,,,,,1866,﻿,﻿,﻿Milwaukee,Milwaukee
﻿mil.wi.0413,﻿station,not recorded,English,,,,﻿Portage County,,﻿Stockton,,﻿WI,,,,,,,,,,,,,,,,,1866,﻿,﻿,﻿Milwaukee,Milwaukee
﻿mil.wi.0248,﻿station,not recorded,English,,,,﻿Racine County,﻿Racine County,﻿Rochester,﻿Rochester,﻿WI,,42.741406,-88.224256,,,,,,,,,,,,,,1866,﻿,﻿,﻿Milwaukee,Milwaukee
﻿mil.wi.0249,﻿station,not recorded,English,,,,﻿Racine County,﻿Racine County,﻿Yorkville,﻿Yorkville,﻿WI,,42.741963,-88.026751,,,,,,,,,,,,,,1866,﻿,﻿,﻿Milwaukee,Milwaukee
﻿lac.wi.0045,﻿station,not recorded,English,,,,﻿Richland County,,﻿Richland Centre,﻿Richland Center,﻿WI,,43.334705,-90.386793,,,,,,,,,,,,,,1866,﻿,﻿,﻿Milwaukee,Milwaukee
﻿lac.wi.0137,﻿station,not recorded,English,,,,﻿Richland County,,﻿Har's Creek,,﻿WI,,,,,,,,,,,,,,,,,1866,﻿,﻿,﻿Milwaukee,Milwaukee
﻿lac.wi.0079,﻿station,not recorded,English,,,,﻿Richland County,,﻿Melanchton Creek,﻿Yuba,﻿WI,,43.518036,-90.358998,,,,,,,,,,,,,,1866,﻿,﻿,﻿Milwaukee,Milwaukee
﻿lac.wi.0080,﻿station,not recorded,English,,,,﻿Richland County,,﻿Mullandy Creek,,﻿WI,,43.333327,-90.466456,,,,,,,,,,,,,,1866,﻿,﻿,﻿Milwaukee,Milwaukee
﻿lac.wi.0081,﻿station,not recorded,English,,,,﻿Richland County,,﻿Pine Creek,﻿Richland Center,﻿WI,,43.410081,-90.579155,,,,,,,,,,,,,,1866,﻿,﻿,﻿Milwaukee,Milwaukee
﻿mil.wi.0250,﻿station,not recorded,English,,,,﻿Rock County,﻿Rock County,﻿Fulton,﻿Fulton,﻿WI,,42.808062,-89.127614,,,,,,,,,,,,,,1866,﻿,﻿,﻿Milwaukee,Milwaukee
﻿mil.wi.0251,﻿station,not recorded,English,,,,﻿Rock County,﻿Rock County,﻿Milton,﻿Milton,﻿WI,,42.775565,-88.943999,,,,,,,,,,,,,,1866,﻿,﻿,﻿Milwaukee,Milwaukee
﻿mil.wi.0252,﻿station,not recorded,English,,,,﻿Rock County,﻿Rock County,﻿Spring Valley,﻿Spring Valley,﻿WI,,42.658342,-89.308449,,,,,,,,,,,,,,1866,﻿,﻿,﻿Milwaukee,Milwaukee
﻿mil.wi.0078,﻿station,not recorded,English,,,,﻿Rock County,﻿Rock County,﻿Footville,﻿Footville,﻿WI,,42.675329,-89.20531,,,,,,,,,,,,,,1866,﻿,﻿,﻿Milwaukee,Milwaukee
﻿mil.wi.0253,﻿station,not recorded,English,,,,﻿Rock County,,﻿Sugar River,﻿Brodhead,﻿WI,,42.636197,-89.386535,,,,,,,,,,,,,,1866,﻿,﻿,﻿Milwaukee,Milwaukee
﻿lac.wi.0138,﻿station,not recorded,English,,,,﻿Sauk County,,﻿Bear Creek,,﻿WI,,,,,,,,,,,,,,,,,1866,﻿,﻿,﻿Milwaukee,Milwaukee
﻿lac.wi.0139,﻿station,not recorded,English,,,,﻿Sauk County,,﻿Marble Quarry,,﻿WI,,,,,,,,,,,,,,,,,1866,﻿,﻿,﻿Milwaukee,Milwaukee
﻿lac.wi.0140,﻿station,not recorded,English,,,,﻿Sauk County,,﻿Sugar Grove,,﻿WI,,,,,,,,,,,,,,,,,1866,﻿,﻿,﻿Milwaukee,Milwaukee
﻿mil.wi.0185,﻿station,not recorded,English,,,,﻿Sheboygan County,﻿Sheboygan County,﻿Rhine,﻿Rhine,﻿WI,,43.816254,-88.007253,,,,,,,,,,,,,,1866,﻿,﻿,﻿Milwaukee,Milwaukee
﻿lac.wi.0054,﻿station,not recorded,English,,,,﻿St. Croix County,,﻿Pleasant Valley,﻿Pleasant Valley,﻿WI,,44.914205,-92.485796,,,,,,,,,,,,,,1866,﻿,﻿,﻿Milwaukee,Milwaukee
﻿lac.wi.0077,﻿station,not recorded,English,,,,﻿St. Croix County,,﻿Bauen's Mills,,﻿WI,,45.049784,-92.387569,,,,,,,,,,,,,,1866,﻿,﻿,﻿Milwaukee,Milwaukee
﻿lac.wi.0057,﻿station,not recorded,English,,,,﻿Trempeleau County,,﻿Galesville,﻿Galesville,﻿WI,,44.083775,-91.358469,,,,,,,,,,,,,,1866,﻿,﻿,﻿Milwaukee,Milwaukee
﻿lac.wi.0141,﻿station,not recorded,English,,,,﻿Trempeleau County,,﻿Hixton,,﻿WI,,,,,,,,,,,,,,,,,1866,﻿,﻿,﻿Milwaukee,Milwaukee
﻿lac.wi.0142,﻿station,not recorded,English,,,,﻿Trempeleau County,,﻿Montoville,,﻿WI,,,,,,,,,,,,,,,,,1866,﻿,﻿,﻿Milwaukee,Milwaukee
﻿lac.wi.0056,﻿station,not recorded,English,,,,﻿Trempeleau County,,﻿Trempeleau City,﻿Trempealeau City,﻿WI,,44.013527,-91.415724,,,,,,,,,,,,,,1866,﻿,﻿,﻿Milwaukee,Milwaukee
﻿lac.wi.0078,﻿station,not recorded,English,,,,﻿Vernon County,,﻿Woodland,﻿Forest,﻿WI,,43.67912,-90.509477,,,,,,,,,,,,,,1866,﻿,﻿,﻿Milwaukee,Milwaukee
﻿mil.wi.0254,﻿station,not recorded,English,,,,﻿Waukesha County,﻿Waukesha County,﻿Delafield,﻿Delafield,﻿WI,,43.059973,-88.404176,,,,,,,,,,,,,,1866,﻿,﻿,﻿Milwaukee,Milwaukee
﻿mil.wi.0255,﻿station,not recorded,English,,,,﻿Waukesha County,﻿Waukesha County,﻿Muckwanago,﻿Mukwonago,﻿WI,,42.863112,-88.332347,,,,,,,,,,,,,,1866,﻿,﻿,﻿Milwaukee,Milwaukee
﻿mil.wi.0256,﻿station,not recorded,English,,,,﻿Waukesha County,﻿Waukesha County,﻿Pewaukee,﻿Pewaukee,﻿WI,,43.065463,-88.205804,,,,,,,,,,,,,,1866,﻿,﻿,﻿Milwaukee,Milwaukee
﻿mil.wi.0414,﻿station,not recorded,English,,,,﻿Waupaca County,,﻿Farmington,,﻿WI,,,,,,,,,,,,,,,,,1866,﻿,﻿,﻿Milwaukee,Milwaukee
﻿mil.wi.0415,﻿station,not recorded,English,,,,﻿Waupaca County,,﻿Caledonia,,﻿WI,,,,,,,,,,,,,,,,,1866,﻿,﻿,﻿Milwaukee,Milwaukee
﻿mil.wi.0416,﻿station,not recorded,English,,,,﻿Waupaca County,,﻿Larribee,,﻿WI,,,,,,,,,,,,,,,,,1866,﻿,﻿,﻿Milwaukee,Milwaukee
﻿mil.wi.0417,﻿station,not recorded,English,,,,﻿Waupaca County,,﻿St. Lawrence,,﻿WI,,,,,,,,,,,,,,,,,1866,﻿,﻿,﻿Milwaukee,Milwaukee
﻿mil.wi.0418,﻿station,not recorded,English,,,,﻿Waupaca County,,﻿Weeyewiga,,﻿WI,,,,,,,,,,,,,,,,,1866,﻿,﻿,﻿Milwaukee,Milwaukee
﻿mil.wi.0421,﻿station,not recorded,English,,,,﻿Waushara County,,﻿Oasis,,﻿WI,,,,,,,,,,,,,,,,,1866,﻿,﻿,﻿Milwaukee,Milwaukee
﻿mil.wi.0422,﻿station,not recorded,English,,,,﻿Waushara County,,﻿Saxeville,,﻿WI,,,,,,,,,,,,,,,,,1866,﻿,﻿,﻿Milwaukee,Milwaukee
﻿mil.wi.0423,﻿station,not recorded,English,,,,﻿Waushara County,,﻿Wautomee,,﻿WI,,,,,,,,,,,,,,,,,1866,﻿,﻿,﻿Milwaukee,Milwaukee
﻿mil.wi.0424,﻿station,not recorded,English,,,,﻿Winnebago County,,﻿Black Wolf,,﻿WI,,,,,,,,,,,,,,,,,1866,﻿,﻿,﻿Milwaukee,Milwaukee
﻿mil.wi.0425,﻿station,not recorded,English,,,,﻿Winnebago County,,﻿Buttes des Mortes,,﻿WI,,,,,,,,,,,,,,,,,1866,﻿,﻿,﻿Milwaukee,Milwaukee
﻿mil.wi.0426,﻿station,not recorded,English,,,,﻿Winnebago County,,﻿Willow Creek,,﻿WI,,,,,,,,,,,,,,,,,1866,﻿,﻿,﻿Milwaukee,Milwaukee
﻿mil.wi.0195_02,﻿convent,﻿Dominican Convent,English,,,,﻿Grant County,,﻿Sinsinawa Mound,,﻿WI,,42.520811,-90.53856,,,,,﻿Rev.,﻿D. J. Meagher,,﻿Superior,,﻿with lay brother,,,,1866,﻿,﻿,﻿Milwaukee,Milwaukee
﻿mil.wi.0195_02,﻿convent,﻿Dominican Convent,English,,,,﻿Grant County,,﻿Sinsinawa Mound,,﻿WI,,42.520811,-90.53856,,,,,﻿Rev.,﻿J. P. Turner,,﻿O.P.,,﻿with lay brother,,,,1866,﻿,﻿,﻿Milwaukee,Milwaukee
﻿mil.wi.0195_02,﻿convent,﻿Dominican Convent,English,,,,﻿Grant County,,﻿Sinsinawa Mound,,﻿WI,,42.520811,-90.53856,,,,,﻿Rev.,﻿Jos. Poelking,,﻿O.P.,,﻿with lay brother,,,,1866,﻿,﻿,﻿Milwaukee,Milwaukee
﻿mil.wi.0257,﻿convent,﻿Capuchin Convent of Calvary,English,,﻿(P.O. Dotyville),,﻿Fond du Lac County,﻿Fond du Lac County,,﻿Calvary,﻿WI,,43.824287,-88.249763,,,,﻿fra_haas_001,﻿Very Rev.,﻿Francis Haas,﻿O.M.,﻿Cap. Commiss. Gen. Gard,,"﻿clerics, lay-brothers, and candidate",,,,1866,﻿,﻿,﻿Milwaukee,Milwaukee
﻿mil.wi.0257,﻿convent,﻿Capuchin Convent of Calvary,English,,﻿(P.O. Dotyville),,﻿Fond du Lac County,﻿Fond du Lac County,,﻿Calvary,﻿WI,,43.824287,-88.249763,,,,﻿bon_frey_002,﻿Rev.,﻿Bonaventura Frey,﻿O.M.C.,﻿Vic.,,"﻿clerics, lay-brothers, and candidate",,,,1866,﻿,﻿,﻿Milwaukee,Milwaukee
﻿mil.wi.0257,﻿convent,﻿Capuchin Convent of Calvary,English,,﻿(P.O. Dotyville),,﻿Fond du Lac County,﻿Fond du Lac County,,﻿Calvary,﻿WI,,43.824287,-88.249763,,,,﻿cag_krauthahn_001,﻿Rev.,﻿Cagetanus Krauthahn,﻿O.M.C.,,,"﻿clerics, lay-brothers, and candidate",,,,1866,﻿,﻿,﻿Milwaukee,Milwaukee
﻿mil.wi.0257,﻿convent,﻿Capuchin Convent of Calvary,English,,﻿(P.O. Dotyville),,﻿Fond du Lac County,﻿Fond du Lac County,,﻿Calvary,﻿WI,,43.824287,-88.249763,,,,﻿dan_scherer_002,﻿Rev.,﻿Daniel Scherer,﻿O.M.C.,,,"﻿clerics, lay-brothers, and candidate",,,,1866,﻿,﻿,﻿Milwaukee,Milwaukee
﻿mil.wi.0257,﻿convent,﻿Capuchin Convent of Calvary,English,,﻿(P.O. Dotyville),,﻿Fond du Lac County,﻿Fond du Lac County,,﻿Calvary,﻿WI,,43.824287,-88.249763,,,,﻿leo_gauche_001,﻿Rev.,﻿Leo Gauche,﻿O.M.C.,,,"﻿clerics, lay-brothers, and candidate",,,,1866,﻿,﻿,﻿Milwaukee,Milwaukee
﻿mil.wi.0257,﻿convent,﻿Capuchin Convent of Calvary,English,,﻿(P.O. Dotyville),,﻿Fond du Lac County,﻿Fond du Lac County,,﻿Calvary,﻿WI,,43.824287,-88.249763,,,,﻿sol_feddermann_001,﻿Rev.,﻿Solanus Fedderman,﻿O.M.C.,,,"﻿clerics, lay-brothers, and candidate",,,,1866,﻿,﻿,﻿Milwaukee,Milwaukee
﻿mil.wi.0257,﻿convent,﻿Capuchin Convent of Calvary,English,,﻿(P.O. Dotyville),,﻿Fond du Lac County,﻿Fond du Lac County,,﻿Calvary,﻿WI,,43.824287,-88.249763,,,,﻿pac_berleman_001,﻿Rev.,﻿Pacificus Berleman,﻿O.M.C.,,,"﻿clerics, lay-brothers, and candidate",,,,1866,﻿,﻿,﻿Milwaukee,Milwaukee
﻿mil.wi.0257,﻿convent,﻿Capuchin Convent of Calvary,English,,﻿(P.O. Dotyville),,﻿Fond du Lac County,﻿Fond du Lac County,,﻿Calvary,﻿WI,,43.824287,-88.249763,,,,﻿ivo_prass_001,﻿Rev.,﻿Ivo. Prass,﻿O.M.C.,,,"﻿clerics, lay-brothers, and candidate",,,,1866,﻿,﻿,﻿Milwaukee,Milwaukee
﻿mil.wi.0257,﻿convent,﻿Capuchin Convent of Calvary,English,,﻿(P.O. Dotyville),,﻿Fond du Lac County,﻿Fond du Lac County,,﻿Calvary,﻿WI,,43.824287,-88.249763,,,,,﻿Rev.,﻿Maria Edmundus Hadtegger,﻿O.M.C.,,,"﻿clerics, lay-brothers, and candidate",,,,1866,﻿,﻿,﻿Milwaukee,Milwaukee
﻿mil.wi.0257,﻿convent,﻿Capuchin Convent of Calvary,English,,﻿(P.O. Dotyville),,﻿Fond du Lac County,﻿Fond du Lac County,,﻿Calvary,﻿WI,,43.824287,-88.249763,,,,,﻿Rev.,﻿Fidelis Heinauer,﻿O.M.C.,,,"﻿clerics, lay-brothers, and candidate",,,,1866,﻿,﻿,﻿Milwaukee,Milwaukee
﻿mil.wi.0318_02,﻿house,﻿House of Brothers of the Third Order of St. Francis Seraph,English,﻿Attached to the Ecclesiastical Seminary,,,﻿Milwaukee County,,﻿Nojoshing,,﻿WI,,42.979525,-87.867348,,,,,,,,,,﻿religious,﻿3 brothers,,,1866,﻿,﻿,﻿Milwaukee,Milwaukee
﻿mil.wi.0259,"﻿convent, house, novitiate, mother house",﻿Convent of the School Sisters of Notre Dame,English,"﻿Mother House and Noviciate...mission houses, 54, with 400 sisters, having under their charge throughout the United States, 17,572 parish school children, over 1007 orphans, and 310 boarders.",﻿Corner of Milwaukee and Knapp streets,,,,﻿Milwaukee,,﻿WI,,43.04798,-87.906633,,,,,﻿Sister,﻿Mary Caroline,,﻿Mother Superioress,,﻿religious,﻿52 religious,﻿Under the charge of the School Sisters of Notre Dame,,1866,﻿,﻿,﻿Milwaukee,Milwaukee
﻿mil.wi.0259,"﻿convent, house, novitiate, mother house",﻿Convent of the School Sisters of Notre Dame,English,"﻿Mother House and Noviciate...mission houses, 54, with 400 sisters, having under their charge throughout the United States, 17,572 parish school children, over 1007 orphans, and 310 boarders.",﻿Corner of Milwaukee and Knapp streets,,﻿,,﻿Milwaukee,,﻿WI,,43.04798,-87.906633,,,,,,,,,,﻿religious,﻿55 novices,﻿Under the charge of the School Sisters of Notre Dame,,1866,﻿,﻿,﻿Milwaukee,Milwaukee
﻿mil.wi.0259,"﻿convent, house, novitiate, mother house",﻿Convent of the School Sisters of Notre Dame,English,"﻿Mother House and Noviciate...mission houses, 54, with 400 sisters, having under their charge throughout the United States, 17,572 parish school children, over 1007 orphans, and 310 boarders.",﻿Corner of Milwaukee and Knapp streets,,﻿,,﻿Milwaukee,,﻿WI,,43.04798,-87.906633,,,,,,,,,,﻿religious,﻿65 postulants,﻿Under the charge of the School Sisters of Notre Dame,,1866,﻿,﻿,﻿Milwaukee,Milwaukee
﻿mil.wi.0299&0299_02,"﻿novitiate, convent, mother house",﻿Convent of the Sisters of the Dominican Order,English,﻿Dedicated to St. Catharine of Sienna. This is the Mother House and Novitiate,,,,﻿Racine County,﻿Racine,﻿Racine,﻿WI,,42.718221,-87.785523,,,,,﻿Sister,﻿Mary Thomazina,,﻿Prioress,,﻿religious,﻿8 professed sisters,,,1866,﻿,﻿,﻿Milwaukee,Milwaukee
﻿mil.wi.0299&0299_02,"﻿novitiate, convent, mother house",﻿Convent of the Sisters of the Dominican Order,English,﻿Dedicated to St. Catharine of Sienna. This is the Mother House and Novitiate,,,﻿,﻿Racine County,﻿Racine,﻿Racine,﻿WI,,42.718221,-87.785523,,,,﻿mic_deisenrieder_001,﻿Rev.,﻿Michael Deisenrieder,,﻿Chaplain,,﻿religious,﻿7 novices,,,1866,﻿,﻿,﻿Milwaukee,Milwaukee
﻿mil.wi.0299&0299_02,"﻿novitiate, convent, mother house",﻿Convent of the Sisters of the Dominican Order,English,﻿Dedicated to St. Catharine of Sienna. This is the Mother House and Novitiate,,,﻿,﻿Racine County,﻿Racine,﻿Racine,﻿WI,,42.718221,-87.785523,,,,,,,,,,﻿religious,﻿11 candidates,,,1866,﻿,﻿,﻿Milwaukee,Milwaukee
﻿mil.wi.0428,﻿house,﻿House of the Sisters of the Third Order of St. Dominic,English,,,,﻿Lafayette County,,﻿Benton,,﻿WI,,,,,,,,﻿Sister,﻿M. Regina,﻿O.S.D.,﻿Superioress,,﻿religious,﻿29 sisters,,,1866,﻿,﻿,﻿Milwaukee,Milwaukee
﻿mil.wi.0428,﻿house,﻿House of the Sisters of the Third Order of St. Dominic,English,,,,﻿Lafayette County,,﻿Benton,,﻿WI,,,,,,,,,,,,,﻿religious,﻿12 novices,,,1866,﻿,﻿,﻿Milwaukee,Milwaukee
﻿mil.wi.0282,"﻿house, novitiate",﻿Sisters of the Third Order of St. Francis Seraph,English,"﻿Mother House and Novitiate, dedicated to Blessed Coleta.","﻿Near Jefferson, Jefferson Co.",,﻿,﻿Jefferson County,﻿Jefferson,﻿Jefferson,﻿WI,,43.002448,-88.780225,,,,,﻿Mother,﻿Antonia,,﻿Superioress,,﻿religious,﻿8 professed sisters,,,1866,﻿,﻿,﻿Milwaukee,Milwaukee
﻿mil.wi.0282,"﻿house, novitiate",﻿Sisters of the Third Order of St. Francis Seraph,English,"﻿Mother House and Novitiate, dedicated to Blessed Coleta.","﻿Near Jefferson, Jefferson Co.",,﻿,﻿Jefferson County,﻿Jefferson,﻿Jefferson,﻿WI,,43.002448,-88.780225,,,,,,,,,,﻿religious,﻿8 novices,,,1866,﻿,﻿,﻿Milwaukee,Milwaukee
﻿mil.wi.0282,"﻿house, novitiate",﻿Sisters of the Third Order of St. Francis Seraph,English,"﻿Mother House and Novitiate, dedicated to Blessed Coleta.","﻿Near Jefferson, Jefferson Co.",,﻿,﻿Jefferson County,﻿Jefferson,﻿Jefferson,﻿WI,,43.002448,-88.780225,,,,,,,,,,﻿religious,﻿6 candidates,,,1866,﻿,﻿,﻿Milwaukee,Milwaukee
﻿mil.wi.0442,﻿consecrated life institution,﻿Sisters of the Third Order of St. Francis Seraph,English,﻿Sisters of the same community continue at Nojoshing.,,,,,﻿Nojoshing,,﻿WI,,,,,,,,﻿Sister,﻿Rosa,,﻿Superioress,,﻿religious,﻿19 professed sisters,﻿Sisters of the Third Order of St. Francis Seraph,,1866,﻿,﻿,﻿Milwaukee,Milwaukee
﻿mil.wi.0442,﻿consecrated life institution,﻿Sisters of the Third Order of St. Francis Seraph,English,﻿Sisters of the same community continue at Nojoshing.,,,,,﻿Nojoshing,,﻿WI,,,,,,,,,,,,,﻿religious,﻿8 novices,﻿Sisters of the Third Order of St. Francis Seraph,,1866,﻿,﻿,﻿Milwaukee,Milwaukee
﻿mil.wi.0305,"﻿house, convent",﻿St. Agnes' Community,English,,,,﻿Washington County,﻿Washington County,﻿Benton,﻿Barton,﻿WI,,43.43789,-88.185299,,,,,,﻿Mary Agnes,,﻿Superioress,,,,,,1866,﻿,﻿,﻿Milwaukee,Milwaukee
﻿mil.wi.0318,﻿seminary,﻿Ecclesiastical Seminary of St. Francis of Sales,English,,﻿Near Milwaukee,,,﻿Milwaukee County,﻿Nojoshing,,﻿WI,,42.979525,-87.867348,,,,﻿m_heiss_002,﻿Rev.,﻿M. Heiss,,"﻿Rector, and Professor of Moral Theology, Scripture and Church History",,﻿student,"﻿102 students, of whom 24 are theologians.",,,1866,﻿,﻿,﻿Milwaukee,Milwaukee
﻿mil.wi.0318,﻿seminary,﻿Ecclesiastical Seminary of St. Francis of Sales,English,,﻿Near Milwaukee,,﻿,﻿Milwaukee County,﻿Nojoshing,,﻿WI,,42.979525,-87.867348,,,,﻿jos_salzman_001,﻿Rev. Dr.,﻿Jos. Salzman,,﻿Procurator and Professor,,﻿student,"﻿102 students, of whom 24 are theologians.",,,1866,﻿,﻿,﻿Milwaukee,Milwaukee
﻿mil.wi.0318,﻿seminary,﻿Ecclesiastical Seminary of St. Francis of Sales,English,,﻿Near Milwaukee,,﻿,﻿Milwaukee County,﻿Nojoshing,,﻿WI,,42.979525,-87.867348,,,,,﻿Rev.,﻿M. Gernbauer,,﻿Professor of Classics,,﻿student,"﻿102 students, of whom 24 are theologians.",,,1866,﻿,﻿,﻿Milwaukee,Milwaukee
﻿mil.wi.0318,﻿seminary,﻿Ecclesiastical Seminary of St. Francis of Sales,English,,﻿Near Milwaukee,,﻿,﻿Milwaukee County,﻿Nojoshing,,﻿WI,,42.979525,-87.867348,,,,,﻿Rev.,﻿Ch. Wapelhorst,,﻿Professor of Dogmatic Theology and Liturgy,,﻿student,"﻿102 students, of whom 24 are theologians.",,,1866,﻿,﻿,﻿Milwaukee,Milwaukee
﻿mil.wi.0318,﻿seminary,﻿Ecclesiastical Seminary of St. Francis of Sales,English,,﻿Near Milwaukee,,﻿,﻿Milwaukee County,﻿Nojoshing,,﻿WI,,42.979525,-87.867348,,,,,﻿Rev.,﻿K. Flasch,,﻿Professor and Disciplinarian,,﻿student,"﻿102 students, of whom 24 are theologians.",,,1866,﻿,﻿,﻿Milwaukee,Milwaukee
﻿mil.wi.0318,﻿seminary,﻿Ecclesiastical Seminary of St. Francis of Sales,English,,﻿Near Milwaukee,,﻿,﻿Milwaukee County,﻿Nojoshing,,﻿WI,,42.979525,-87.867348,,,,,﻿Rev.,﻿A. Bürkhaeuser,,﻿Professor of Philosophy and Greek,,﻿student,"﻿102 students, of whom 24 are theologians.",,,1866,﻿,﻿,﻿Milwaukee,Milwaukee
﻿mil.wi.0318,﻿seminary,﻿Ecclesiastical Seminary of St. Francis of Sales,English,,﻿Near Milwaukee,,﻿,﻿Milwaukee County,﻿Nojoshing,,﻿WI,,42.979525,-87.867348,,,,,﻿Rev.,﻿A. Sigg,,﻿Professor of Classics and German,,﻿student,"﻿102 students, of whom 24 are theologians.",,,1866,﻿,﻿,﻿Milwaukee,Milwaukee
﻿mil.wi.0318,﻿seminary,﻿Ecclesiastical Seminary of St. Francis of Sales,English,,﻿Near Milwaukee,,﻿,﻿Milwaukee County,﻿Nojoshing,,﻿WI,,42.979525,-87.867348,,,,,﻿Mr.,﻿T. B. Dorward,,﻿Professor of the English Language and of Rhetoric,,﻿student,"﻿102 students, of whom 24 are theologians.",,,1866,﻿,﻿,﻿Milwaukee,Milwaukee
﻿mil.wi.0318,﻿seminary,﻿Ecclesiastical Seminary of St. Francis of Sales,English,,﻿Near Milwaukee,,﻿,﻿Milwaukee County,﻿Nojoshing,,﻿WI,,42.979525,-87.867348,,,,,﻿Mr.,﻿Jos. Moder,,﻿Professor of Latin and Arithmetic,,﻿student,"﻿102 students, of whom 24 are theologians.",,,1866,﻿,﻿,﻿Milwaukee,Milwaukee
﻿mil.wi.0318,﻿seminary,﻿Ecclesiastical Seminary of St. Francis of Sales,English,,﻿Near Milwaukee,,﻿,﻿Milwaukee County,﻿Nojoshing,,﻿WI,,42.979525,-87.867348,,,,,﻿Mr.,﻿Fr. Katzer,,﻿Professor of Mathematics and Natural Philosophy,,﻿student,"﻿102 students, of whom 24 are theologians.",,,1866,﻿,﻿,﻿Milwaukee,Milwaukee
﻿mil.wi.0258,﻿college,﻿Ecclesiastical College of St. Lawrence of Brindusium,English,,,,﻿Fond du Lac County,,,,﻿WI,,43.78444,-88.787868,﻿mil.wi.0257,,,,,,,,,﻿boarder,﻿accommodations for about 50 boarders,"﻿Conducted by the Capuchin Fathers of Calvary Convent, ( P.O. Dotyville)",,1866,﻿,﻿,﻿Milwaukee,Milwaukee
﻿mil.wi.0258,﻿college,﻿Ecclesiastical College of St. Lawrence of Brindusium,English,﻿All branches of gymnastic science are taught.,,,﻿Fond du Lac County,,,,﻿WI,,43.78444,-88.787868,,,,﻿alo_sigg_001,,,,,,﻿boarder,﻿accommodations for about 50 boarders,"﻿Conducted by the Capuchin Fathers of Calvary Convent, ( P.O. Dotyville)",,1866,﻿,﻿,﻿Milwaukee,Milwaukee
﻿mil.wi.0258,﻿college,﻿Ecclesiastical College of St. Lawrence of Brindusium,English,"﻿Letters must be addressed to the Rev. Cajetanus, O.M.C., Rector of the College",,,﻿Fond du Lac County,,,,﻿WI,,43.78444,-88.787868,,,,,,,,,,﻿boarder,﻿accommodations for about 50 boarders,"﻿Conducted by the Capuchin Fathers of Calvary Convent, ( P.O. Dotyville)",,1866,﻿,﻿,﻿Milwaukee,Milwaukee
﻿mil.wi.0319,﻿school,﻿St. Gall's Academy,English,﻿This school has been recently opened with a new and fine building.,,,,﻿Milwaukee County,﻿Milwaukee,﻿Milwaukee,﻿WI,,43.066124,-87.913974,,,,﻿j_j_kuhlman_001,﻿Rev.,﻿J. J. Kuhlman,﻿S.J.,﻿Professor,,,,﻿Superintended by the Fathers of the Society of Jesus,,1866,﻿,﻿,﻿Milwaukee,Milwaukee
﻿mil.wi.0319,﻿school,﻿St. Gall's Academy,English,﻿This school has been recently opened with a new and fine building.,,,﻿,﻿Milwaukee County,﻿Milwaukee,﻿Milwaukee,﻿WI,,43.066124,-87.913974,,,,﻿joh_bowe_002,﻿Mr.,﻿John Bowe,﻿S.J.,﻿Professor,,,,﻿Superintended by the Fathers of the Society of Jesus,,1866,﻿,﻿,﻿Milwaukee,Milwaukee
﻿mil.wi.0319,﻿school,﻿St. Gall's Academy,English,﻿This school has been recently opened with a new and fine building.,,,﻿,﻿Milwaukee County,﻿Milwaukee,﻿Milwaukee,﻿WI,,43.066124,-87.913974,,,,﻿hen_a_munks_001,﻿Mr.,﻿Henry A. Munks,﻿S.J.,﻿Professor,,,,﻿Superintended by the Fathers of the Society of Jesus,,1866,﻿,﻿,﻿Milwaukee,Milwaukee
﻿mil.wi.0319,﻿school,﻿St. Gall's Academy,English,﻿This school has been recently opened with a new and fine building.,,,﻿,﻿Milwaukee County,﻿Milwaukee,﻿Milwaukee,﻿WI,,43.066124,-87.913974,,,,,﻿Mr.,﻿Joseph Rimmele,,﻿Professor,,,,﻿Superintended by the Fathers of the Society of Jesus,,1866,﻿,﻿,﻿Milwaukee,Milwaukee
﻿mil.wi.0319,﻿school,﻿St. Gall's Academy,English,﻿This school has been recently opened with a new and fine building.,,,﻿,﻿Milwaukee County,﻿Milwaukee,﻿Milwaukee,﻿WI,,43.066124,-87.913974,,,,﻿wil_collins_001,﻿Mr.,﻿William Collins,,﻿Professor,,,,﻿Superintended by the Fathers of the Society of Jesus,,1866,﻿,﻿,﻿Milwaukee,Milwaukee
﻿mil.wi.0319,﻿school,﻿St. Gall's Academy,English,﻿This school has been recently opened with a new and fine building.,,,﻿,﻿Milwaukee County,﻿Milwaukee,﻿Milwaukee,﻿WI,,43.066124,-87.913974,,,,﻿pat_donnelly_001,﻿Mr.,﻿Patrick Donnelly,,﻿Professor,,,,﻿Superintended by the Fathers of the Society of Jesus,,1866,﻿,﻿,﻿Milwaukee,Milwaukee
﻿mil.wi.0010_03,﻿school,﻿St. Mary's Institute,English,﻿This is a boarding school for young ladies.,﻿Corner of Milwaukee and Knapp streets,,,﻿Milwaukee County,﻿Milwaukee,﻿Milwaukee,﻿WI,,43.047156,-87.907544,,,,,﻿Sister,﻿Mary Seraphica,,﻿Directress,,﻿child,﻿70 young ladies,﻿Under the charge of School Sisters of Notre Dame,,1866,﻿,﻿,﻿Milwaukee,Milwaukee
﻿mil.wi.0430,﻿academy,﻿Female Academy of St. Catharine of Sienna,English,,,,﻿,,﻿Racine,,﻿WI,,,,,,,,﻿Sister,﻿Cecilia,﻿O.S.D.,﻿Directress,,﻿boarder,﻿10 boarders,﻿Under the charge of the Dominican Sisters,,1866,﻿,﻿,﻿Milwaukee,Milwaukee
﻿mil.wi.0430,﻿academy,﻿Female Academy of St. Catharine of Sienna,English,,,,﻿,,﻿Racine,,﻿WI,,,,,,,,,,,,,﻿student,﻿20 day-scholars,﻿Under the charge of the Dominican Sisters,,1866,﻿,﻿,﻿Milwaukee,Milwaukee
﻿mil.wi.0292_03,﻿academy,﻿St. Clara's Female Academy,English,﻿Connected with it is also a day-school,,,﻿Lafayette County,,﻿Benton,,﻿WI,,42.567259,-90.378844,,,,,,,,,,﻿boarder,﻿80 boarders,﻿Under the Direction of Sisters of the Third Order of St. Dominic,,1866,﻿,﻿,﻿Milwaukee,Milwaukee
﻿mil.wi.0306,﻿school,﻿St. Agnes' Female School,English,﻿Charged with boarders and day pupils,,,﻿Washington County,﻿Washington County,﻿Barton,﻿Barton,﻿WI,,43.43789,-88.185299,,,,,,,,,,,,,,1866,﻿,﻿,﻿Milwaukee,Milwaukee
﻿mil.wi.0261,﻿school,﻿St. Rosa's Select School,English,,"﻿On Van Buren, between Biddle and Oneida streets",,,﻿Milwaukee County,﻿Milwaukee,﻿Milwaukee,﻿WI,,43.042145,-87.90332,,,,,,,,,,﻿student,﻿76 pupils,﻿Conducted by Sisters of Charity,,1866,﻿,﻿,﻿Milwaukee,Milwaukee
﻿mil.wi.0262,﻿school,﻿St. Rosa's Free School,English,,,,﻿,﻿Milwaukee County,,,﻿WI,,43.042145,-87.90332,,,,,,,,,,﻿student,﻿90 pupils,,,1866,﻿,﻿,﻿Milwaukee,Milwaukee
﻿mil.wi.0010_02,﻿school,﻿Day School of St. Mary's of the Holy Angels,English,,﻿Corner of Milwaukee and Knapp streets,,,﻿Milwaukee County,﻿Milwaukee,﻿Milwaukee,﻿WI,,43.047156,-87.907544,,,,,﻿Sister,﻿Mary Ernesta,,﻿Directress,,﻿religious,﻿12 Sisters employed in teaching,﻿Conducted by the School Sisters of Notre Dame,,1866,﻿,﻿,﻿Milwaukee,Milwaukee
﻿mil.wi.0010_02,﻿school,﻿Day School of St. Mary's of the Holy Angels,English,,﻿Corner of Milwaukee and Knapp streets,,,﻿Milwaukee County,﻿Milwaukee,﻿Milwaukee,﻿WI,,43.047156,-87.907544,,,,,,,,,,﻿student,﻿400 pupils,﻿Conducted by the School Sisters of Notre Dame,,1866,﻿,﻿,﻿Milwaukee,Milwaukee
﻿mil.wi.0264,﻿school,﻿St. Mary's Parish School,﻿German and English,,,,,﻿Milwaukee County,﻿Milwaukee,﻿Milwaukee,﻿WI,,43.042173,-87.907964,,,,,﻿Sister,﻿Mary Solina,,﻿Directress,,﻿student,﻿400 pupils,﻿Conducted by the School Sisters of Notre Dame,,1866,﻿,﻿,﻿Milwaukee,Milwaukee
﻿mil.wi.0265,﻿school,﻿Holy Trinity Parish School,English,﻿for girls,,,﻿,﻿Milwaukee County,﻿Milwaukee,﻿Milwaukee,﻿WI,,43.025057,-87.91582,,,,,﻿Sister,﻿Mary Michaela,,﻿Directress,,﻿religious,﻿3 Sisters,﻿Conducted by the School Sisters of Notre Dame,,1866,﻿,﻿,﻿Milwaukee,Milwaukee
﻿mil.wi.0265,﻿school,﻿Holy Trinity Parish School,English,﻿for girls,,,﻿,﻿Milwaukee County,﻿Milwaukee,﻿Milwaukee,﻿WI,,43.025057,-87.91582,,,,,,,,,,﻿student,﻿270 pupils,﻿Conducted by the School Sisters of Notre Dame,,1866,﻿,﻿,﻿Milwaukee,Milwaukee
﻿mil.wi.0266,﻿school,﻿St. Joseph's Parish School,English,,,,﻿,﻿Milwaukee County,﻿Milwaukee,﻿Milwaukee,﻿WI,,43.04987,-87.926109,,,,,﻿Sister,﻿Mary Timothea,,﻿Directress,,﻿religious,﻿6 Sisters,﻿Conducted by the School Sisters of Notre Dame,,1866,﻿,﻿,﻿Milwaukee,Milwaukee
﻿mil.wi.0266,﻿school,﻿St. Joseph's Parish School,English,,,,﻿,﻿Milwaukee County,﻿Milwaukee,﻿Milwaukee,﻿WI,,43.04987,-87.926109,,,,,,,,,,﻿student,﻿520 pupils,﻿Conducted by the School Sisters of Notre Dame,,1866,﻿,﻿,﻿Milwaukee,Milwaukee
﻿mil.wi.0269,﻿school,﻿St. Cecilia's Parish School,English,,,,﻿,,﻿Mount Carmel,,﻿WI,,43.78444,-88.787868,,,,,﻿Sister,﻿Mary Petra Forreria,,﻿Sister-Directress,,﻿religious,﻿5 Sisters,﻿Conducted by the School Sisters of Notre Dame,,1866,﻿,﻿,﻿Milwaukee,Milwaukee
﻿mil.wi.0269,﻿school,﻿St. Cecilia's Parish School,English,,,,﻿,,﻿Mount Carmel,,﻿WI,,43.78444,-88.787868,,,,,,,,,,﻿student,﻿180 pupils,﻿Conducted by the School Sisters of Notre Dame,,1866,﻿,﻿,﻿Milwaukee,Milwaukee
